$GPGSV,3,1,10,12,86,356,25,02,72,050,17,25,45,316,26,06,31,045,22*77
$GPGSV,3,2,10,05,30,143,18,29,25,282,19,24,25,210,17,20,03,186,*76
$GPGSV,3,3,10,31,02,330,,34,,,*4F
$GPRMC,221049.000,A,3700.0382,N,12203.8003,W,0.40,229.64,290715,,,A*73
$GPVTG,229.64,T,,M,0.40,N,0.74,K,A*31
$GPGGA,221050.000,3700.0388,N,12203.8006,W,1,04,1.61,213.2,M,-26.6,M,,*5E
$GPGSA,A,3,12,05,06,25,,,,,,,,,1.87,1.61,0.95*01
$GPRMC,221050.000,A,3700.0388,N,12203.8006,W,0.34,252.39,290715,,,A*73
$GPVTG,252.39,T,,M,0.34,N,0.63,K,A*30
$GPGGA,221051.000,3700.0393,N,12203.8011,W,1,04,1.61,213.5,M,-26.6,M,,*54
$GPGSA,A,3,12,05,06,25,,,,,,,,,1.87,1.61,0.95*01
$GPRMC,221051.000,A,3700.0393,N,12203.8011,W,0.36,267.76,290715,,,A*71
$GPVTG,267.76,T,,M,0.36,N,0.67,K,A*3B
$GPGGA,221052.000,3700.0393,N,12203.8012,W,1,04,1.61,213.5,M,-26.6,M,,*54
$GPGSA,A,3,12,05,06,25,,,,,,,,,1.87,1.61,0.95*01
$GPRMC,221052.000,A,3700.0393,N,12203.8012,W,0.33,278.57,290715,,,A*79
$GPVTG,278.57,T,,M,0.33,N,0.62,K,A*36
$GPGGA,221053.000,3700.0394,N,12203.8013,W,1,04,1.62,213.5,M,-26.6,M,,*50
$GPGSA,A,3,12,05,06,25,,,,,,,,,1.87,1.62,0.95*02
$GPRMC,221053.000,A,3700.0394,N,12203.8013,W,0.26,291.84,290715,,,A*73
$GPVTG,291.84,T,,M,0.26,N,0.48,K,A*33
$GPGGA,221054.000,3700.0394,N,12203.8014,W,1,04,1.62,213.5,M,-26.6,M,,*50
$GPGSA,A,3,12,05,06,25,,,,,,,,,1.87,1.62,0.95*02
$GPGSV,3,1,10,12,86,356,25,02,72,050,17,25,45,316,25,06,31,045,24*72
$GPGSV,3,2,10,05,30,143,19,29,25,282,19,24,25,210,17,20,03,186,*77
$GPGSV,3,3,10,31,02,329,,35,,,*46
$GPRMC,221054.000,A,3700.0394,N,12203.8014,W,0.29,302.24,290715,,,A*7D
$GPVTG,302.24,T,,M,0.29,N,0.54,K,A*30
$GPGGA,221055.000,3700.0394,N,12203.8015,W,1,04,1.61,213.6,M,-26.6,M,,*50
$GPGSA,A,3,12,05,06,25,,,,,,,,,1.87,1.61,0.95*01
$GPRMC,221055.000,A,3700.0394,N,12203.8015,W,0.20,312.71,290715,,,A*75
$GPVTG,312.71,T,,M,0.20,N,0.38,K,A*32
$GPGGA,221056.000,3700.0395,N,12203.8015,W,1,04,1.61,213.6,M,-26.6,M,,*52
$GPGSA,A,3,12,05,06,25,,,,,,,,,1.87,1.61,0.95*01
$GPRMC,221056.000,A,3700.0395,N,12203.8015,W,0.24,322.95,290715,,,A*7A
$GPVTG,322.95,T,,M,0.24,N,0.44,K,A*34
$GPGGA,221057.000,3700.0396,N,12203.8016,W,1,04,1.61,213.6,M,-26.6,M,,*53
$GPGSA,A,3,12,05,06,25,,,,,,,,,1.87,1.61,0.95*01
$GPRMC,221057.000,A,3700.0396,N,12203.8016,W,0.34,334.92,290715,,,A*7A
$GPVTG,334.92,T,,M,0.34,N,0.62,K,A*31
$GPGGA,221058.000,3700.0397,N,12203.8016,W,1,04,1.61,213.6,M,-26.6,M,,*5D
$GPGSA,A,3,12,05,06,25,,,,,,,,,1.87,1.61,0.95*01
$GPRMC,221058.000,A,3700.0397,N,12203.8016,W,0.44,321.20,290715,,,A*7E
$GPVTG,321.20,T,,M,0.44,N,0.82,K,A*35
$GPGGA,221059.000,3700.0398,N,12203.8018,W,1,04,1.62,213.6,M,-26.6,M,,*5E
$GPGSA,A,3,12,05,06,25,,,,,,,,,1.88,1.62,0.95*0D
$GPGSV,3,1,10,12,86,356,24,02,72,049,16,25,45,316,26,06,31,045,24*79
$GPGSV,3,2,10,05,30,143,19,29,25,282,19,24,25,210,17,20,03,186,*77
$GPGSV,3,3,10,31,02,329,,36,,,*45
$GPRMC,221059.000,A,3700.0398,N,12203.8018,W,0.52,317.70,290715,,,A*79
$GPVTG,317.70,T,,M,0.52,N,0.97,K,A*36
$GPGGA,221100.000,3700.0399,N,12203.8019,W,1,04,1.62,213.6,M,-26.6,M,,*53
$GPGSA,A,3,12,05,06,25,,,,,,,,,1.88,1.62,0.95*0D
$GPRMC,221100.000,A,3700.0399,N,12203.8019,W,0.60,313.00,290715,,,A*76
$GPVTG,313.00,T,,M,0.60,N,1.12,K,A*38
$GPGGA,221101.000,3700.0404,N,12203.8025,W,1,04,1.61,213.8,M,-26.6,M,,*53
$GPGSA,A,3,12,05,06,25,,,,,,,,,1.87,1.61,0.95*01
$GPRMC,221101.000,A,3700.0404,N,12203.8025,W,0.70,315.62,290715,,,A*78
$GPVTG,315.62,T,,M,0.70,N,1.30,K,A*3B
$GPGGA,221102.000,3700.0409,N,12203.8031,W,1,04,1.61,213.9,M,-26.6,M,,*59
$GPGSA,A,3,12,05,06,25,,,,,,,,,1.87,1.61,0.95*01
$GPRMC,221102.000,A,3700.0409,N,12203.8031,W,0.80,316.36,290715,,,A*7E
$GPVTG,316.36,T,,M,0.80,N,1.48,K,A*39
$GPGGA,221103.000,3700.0414,N,12203.8034,W,1,04,1.62,214.1,M,-26.6,M,,*5D
$GPGSA,A,3,12,05,06,25,,,,,,,,,1.88,1.62,0.95*0D
$GPRMC,221103.000,A,3700.0414,N,12203.8034,W,0.78,321.51,290715,,,A*74
$GPVTG,321.51,T,,M,0.78,N,1.44,K,A*37
$GPGGA,221104.000,3700.0420,N,12203.8033,W,1,04,1.62,214.3,M,-26.6,M,,*58
$GPGSA,A,3,12,05,06,25,,,,,,,,,1.87,1.62,0.95*02
$GPGSV,3,1,10,12,86,356,21,02,72,049,15,25,45,316,27,06,31,045,23*79
$GPGSV,3,2,10,05,30,143,20,29,25,282,18,24,25,210,15,20,03,186,*7E
$GPGSV,3,3,10,31,02,329,,38,,,*4B
$GPRMC,221104.000,A,3700.0420,N,12203.8033,W,0.72,331.54,290715,,,A*7D
$GPVTG,331.54,T,,M,0.72,N,1.34,K,A*3E
$GPGGA,221105.000,3700.0423,N,12203.8035,W,1,04,1.61,214.4,M,-26.6,M,,*58
$GPGSA,A,3,12,05,06,25,,,,,,,,,1.87,1.61,0.95*01
$GPRMC,221105.000,A,3700.0423,N,12203.8035,W,0.67,334.86,290715,,,A*77
$GPVTG,334.86,T,,M,0.67,N,1.25,K,A*30
$GPGGA,221106.000,3700.0426,N,12203.8040,W,1,04,1.62,214.6,M,-26.6,M,,*5D
$GPGSA,A,3,12,05,06,25,,,,,,,,,1.87,1.62,0.95*02
$GPRMC,221106.000,A,3700.0426,N,12203.8040,W,0.66,332.83,290715,,,A*71
$GPVTG,332.83,T,,M,0.66,N,1.22,K,A*35
$GPGGA,221107.000,3700.0427,N,12203.8045,W,1,04,1.61,214.8,M,-26.6,M,,*55
$GPGSA,A,3,12,05,06,25,,,,,,,,,1.87,1.61,0.95*01
$GPRMC,221107.000,A,3700.0427,N,12203.8045,W,0.58,325.28,290715,,,A*7E
$GPVTG,325.28,T,,M,0.58,N,1.07,K,A*38
$GPGGA,221108.000,3700.0428,N,12203.8047,W,1,04,1.62,214.9,M,-26.6,M,,*55
$GPGSA,A,3,12,05,06,25,,,,,,,,,1.87,1.62,0.95*02
$GPRMC,221108.000,A,3700.0428,N,12203.8047,W,0.49,324.03,290715,,,A*74
$GPVTG,324.03,T,,M,0.49,N,0.90,K,A*3F
$GPGGA,221109.000,3700.0429,N,12203.8052,W,1,04,1.61,215.0,M,-26.6,M,,*5A
$GPGSA,A,3,12,05,06,25,,,,,,,,,1.87,1.61,0.95*01
$GPGSV,3,1,10,12,87,358,21,02,72,049,16,25,45,316,26,06,31,045,23*74
$GPGSV,3,2,10,05,30,143,20,29,25,282,18,24,25,210,13,20,03,186,*78
$GPGSV,3,3,10,31,02,329,,38,,,*4B
$GPRMC,221109.000,A,3700.0429,N,12203.8052,W,0.47,314.07,290715,,,A*79
$GPVTG,314.07,T,,M,0.47,N,0.87,K,A*30
$GPGGA,221110.000,3700.0431,N,12203.8054,W,1,04,1.61,215.0,M,-26.6,M,,*5D
$GPGSA,A,3,12,05,06,25,,,,,,,,,1.87,1.61,0.95*01
$GPRMC,221110.000,A,3700.0431,N,12203.8054,W,0.46,316.17,290715,,,A*7C
$GPVTG,316.17,T,,M,0.46,N,0.86,K,A*33
$GPGGA,221111.000,3700.0432,N,12203.8056,W,1,04,1.62,215.0,M,-26.6,M,,*5E
$GPGSA,A,3,12,05,06,25,,,,,,,,,1.87,1.62,0.95*02
$GPRMC,221111.000,A,3700.0432,N,12203.8056,W,0.56,312.77,290715,,,A*7F
$GPVTG,312.77,T,,M,0.56,N,1.03,K,A*3C
$GPGGA,221112.000,3700.0433,N,12203.8057,W,1,04,1.62,215.0,M,-26.6,M,,*5D
$GPGSA,A,3,12,05,06,25,,,,,,,,,1.87,1.62,0.95*02
$GPRMC,221112.000,A,3700.0433,N,12203.8057,W,0.69,305.72,290715,,,A*73
$GPVTG,305.72,T,,M,0.69,N,1.27,K,A*35
$GPGGA,221113.000,3700.0436,N,12203.8060,W,1,04,1.61,215.2,M,-26.6,M,,*5C
$GPGSA,A,3,12,05,06,25,,,,,,,,,1.87,1.61,0.95*01
$GPRMC,221113.000,A,3700.0436,N,12203.8060,W,0.64,304.32,290715,,,A*7B
$GPVTG,304.32,T,,M,0.64,N,1.19,K,A*30
$GPGGA,221114.000,3700.0436,N,12203.8058,W,1,04,1.62,215.3,M,-26.6,M,,*52
$GPGSA,A,3,12,05,06,25,,,,,,,,,1.88,1.62,0.95*0D
$GPGSV,3,1,10,12,87,358,20,02,72,049,16,25,45,316,27,06,31,045,23*74
$GPGSV,3,2,10,05,30,143,20,29,25,282,18,24,25,210,14,20,03,186,*7F
$GPGSV,3,3,10,31,02,329,,41,,,*45
$GPRMC,221114.000,A,3700.0436,N,12203.8058,W,0.43,306.55,290715,,,A*71
$GPVTG,306.55,T,,M,0.43,N,0.80,K,A*37
$GPGGA,221115.000,3700.0437,N,12203.8059,W,1,04,1.61,215.4,M,-26.6,M,,*57
$GPGSA,A,3,12,05,06,25,,,,,,,,,1.87,1.61,0.95*01
$GPRMC,221115.000,A,3700.0437,N,12203.8059,W,0.38,306.47,290715,,,A*7F
$GPVTG,306.47,T,,M,0.38,N,0.70,K,A*37
$GPGGA,221116.000,3700.0440,N,12203.8061,W,1,04,1.62,215.5,M,-26.6,M,,*5D
$GPGSA,A,3,12,05,06,25,,,,,,,,,1.88,1.62,0.95*0D
$GPRMC,221116.000,A,3700.0440,N,12203.8061,W,0.30,305.55,290715,,,A*7F
$GPVTG,305.55,T,,M,0.30,N,0.56,K,A*3B
$GPGGA,221117.000,3700.0442,N,12203.8061,W,1,04,1.62,215.7,M,-26.6,M,,*5C
$GPGSA,A,3,12,05,06,25,,,,,,,,,1.87,1.62,0.95*02
$GPRMC,221117.000,A,3700.0442,N,12203.8061,W,0.22,301.40,290715,,,A*7F
$GPVTG,301.40,T,,M,0.22,N,0.41,K,A*3E
$GPGGA,221118.000,3700.0442,N,12203.8062,W,1,04,1.62,215.7,M,-26.6,M,,*50
$GPGSA,A,3,12,05,06,25,,,,,,,,,1.87,1.62,0.95*02
$GPRMC,221118.000,A,3700.0442,N,12203.8062,W,0.20,303.35,290715,,,A*71
$GPVTG,303.35,T,,M,0.20,N,0.37,K,A*3D
$GPGGA,221119.000,3700.0442,N,12203.8062,W,1,04,1.62,215.7,M,-26.6,M,,*51
$GPGSA,A,3,12,05,06,25,,,,,,,,,1.87,1.62,0.95*02
$GPGSV,3,1,10,12,87,358,20,02,72,049,14,25,45,316,28,06,31,045,25*7F
$GPGSV,3,2,10,05,30,143,23,29,25,282,16,24,25,210,14,20,03,186,*72
$GPGSV,3,3,10,31,02,329,,43,,,*47
$GPRMC,221119.000,A,3700.0442,N,12203.8062,W,0.24,306.84,290715,,,A*7B
$GPVTG,306.84,T,,M,0.24,N,0.45,K,A*33
$GPGGA,221120.000,3700.0443,N,12203.8063,W,1,04,1.62,215.7,M,-26.6,M,,*5B
$GPGSA,A,3,12,05,06,25,,,,,,,,,1.87,1.62,0.95*02
$GPRMC,221120.000,A,3700.0443,N,12203.8063,W,0.25,323.30,290715,,,A*78
$GPVTG,323.30,T,,M,0.25,N,0.47,K,A*38
$GPGGA,221121.000,3700.0443,N,12203.8063,W,1,04,1.61,215.7,M,-26.6,M,,*59
$GPGSA,A,3,12,05,06,25,,,,,,,,,1.87,1.61,0.95*01
$GPRMC,221121.000,A,3700.0443,N,12203.8063,W,0.23,325.92,290715,,,A*71
$GPVTG,325.92,T,,M,0.23,N,0.42,K,A*35
$GPGGA,221122.000,3700.0444,N,12203.8064,W,1,04,1.62,215.7,M,-26.6,M,,*59
$GPGSA,A,3,12,05,06,25,,,,,,,,,1.88,1.62,0.95*0D
$GPRMC,221122.000,A,3700.0444,N,12203.8064,W,0.27,328.65,290715,,,A*73
$GPVTG,328.65,T,,M,0.27,N,0.51,K,A*36
$GPGGA,221123.000,3700.0445,N,12203.8064,W,1,04,1.62,215.7,M,-26.6,M,,*59
$GPGSA,A,3,12,05,06,25,,,,,,,,,1.88,1.62,0.95*0D
$GPRMC,221123.000,A,3700.0445,N,12203.8064,W,0.23,345.41,290715,,,A*7A
$GPVTG,345.41,T,,M,0.23,N,0.42,K,A*3D
$GPGGA,221124.000,3700.0445,N,12203.8064,W,1,04,1.83,215.7,M,-26.6,M,,*51
$GPGSA,A,3,12,05,06,25,,,,,,,,,3.60,1.83,3.11*09
$GPGSV,3,1,10,12,87,358,17,02,72,049,13,25,46,316,29,06,31,045,26*7D
$GPGSV,3,2,10,05,30,143,23,29,25,283,14,24,25,210,15,20,03,186,*70
$GPGSV,3,3,10,31,02,329,,43,,,*47
$GPRMC,221124.000,A,3700.0445,N,12203.8064,W,0.29,347.06,290715,,,A*76
$GPVTG,347.06,T,,M,0.29,N,0.53,K,A*36
$GPGGA,221125.000,3700.0446,N,12203.8065,W,1,04,1.83,215.7,M,-26.6,M,,*52
$GPGSA,A,3,12,05,06,25,,,,,,,,,3.60,1.83,3.11*09
$GPRMC,221125.000,A,3700.0446,N,12203.8065,W,0.27,3.25,290715,,,A*79
$GPVTG,3.25,T,,M,0.27,N,0.51,K,A*38
$GPGGA,221126.000,3700.0447,N,12203.8064,W,1,04,1.83,215.7,M,-26.6,M,,*51
$GPGSA,A,3,12,05,06,25,,,,,,,,,3.60,1.83,3.11*09
$GPRMC,221126.000,A,3700.0447,N,12203.8064,W,0.28,351.00,290715,,,A*76
$GPVTG,351.00,T,,M,0.28,N,0.51,K,A*34
$GPGGA,221127.000,3700.0447,N,12203.8065,W,1,04,1.83,215.7,M,-26.6,M,,*51
$GPGSA,A,3,12,05,06,25,,,,,,,,,3.61,1.83,3.11*08
$GPRMC,221127.000,A,3700.0447,N,12203.8065,W,0.26,341.78,290715,,,A*76
$GPVTG,341.78,T,,M,0.26,N,0.49,K,A*3D
$GPGGA,221128.000,3700.0448,N,12203.8065,W,1,04,1.62,215.7,M,-26.6,M,,*5E
$GPGSA,A,3,12,05,06,25,,,,,,,,,1.88,1.62,0.95*0D
$GPRMC,221128.000,A,3700.0448,N,12203.8065,W,0.29,334.31,290715,,,A*76
$GPVTG,334.31,T,,M,0.29,N,0.54,K,A*31
$GPGGA,221129.000,3700.0449,N,12203.8065,W,1,04,1.61,215.7,M,-26.6,M,,*5D
$GPGSA,A,3,12,05,06,25,,,,,,,,,1.87,1.61,0.95*01
$GPGSV,3,1,10,12,87,358,16,02,72,049,12,25,46,316,29,06,31,045,26*7D
$GPGSV,3,2,10,05,30,143,21,29,25,283,15,24,25,210,14,20,03,186,*72
$GPGSV,3,3,10,31,03,329,,45,,,*40
$GPRMC,221129.000,A,3700.0449,N,12203.8065,W,0.30,309.74,290715,,,A*71
$GPVTG,309.74,T,,M,0.30,N,0.55,K,A*37
$GPGGA,221130.000,3700.0449,N,12203.8066,W,1,04,1.62,215.7,M,-26.6,M,,*55
$GPGSA,A,3,12,05,06,25,,,,,,,,,1.88,1.62,0.95*0D
$GPRMC,221130.000,A,3700.0449,N,12203.8066,W,0.15,309.78,290715,,,A*71
$GPVTG,309.78,T,,M,0.15,N,0.28,K,A*36
$GPGGA,221131.000,3700.0450,N,12203.8067,W,1,04,1.62,215.7,M,-26.6,M,,*5D
$GPGSA,A,3,12,05,06,25,,,,,,,,,1.88,1.62,0.95*0D
$GPRMC,221131.000,A,3700.0450,N,12203.8067,W,0.20,279.73,290715,,,A*72
$GPVTG,279.73,T,,M,0.20,N,0.37,K,A*33
$GPGGA,221132.000,3700.0450,N,12203.8068,W,1,04,1.62,215.8,M,-26.6,M,,*5E
$GPGSA,A,3,12,05,06,25,,,,,,,,,1.88,1.62,0.95*0D
$GPRMC,221132.000,A,3700.0450,N,12203.8068,W,0.19,283.70,290715,,,A*72
$GPVTG,283.70,T,,M,0.19,N,0.35,K,A*3D
$GPGGA,221133.000,3700.0450,N,12203.8068,W,1,04,1.62,215.8,M,-26.6,M,,*5F
$GPGSA,A,3,12,05,06,25,,,,,,,,,1.88,1.62,0.95*0D
$GPRMC,221133.000,A,3700.0450,N,12203.8068,W,0.11,316.99,290715,,,A*71
$GPVTG,316.99,T,,M,0.11,N,0.20,K,A*3B
$GPGGA,221134.000,3700.0450,N,12203.8068,W,1,04,1.62,215.8,M,-26.6,M,,*58
$GPGSA,A,3,12,05,06,25,,,,,,,,,1.88,1.62,0.95*0D
$GPGSV,3,1,10,12,87,358,21,02,71,049,14,25,46,316,29,06,31,045,26*7C
$GPGSV,3,2,10,05,30,143,21,29,25,283,15,24,25,210,15,20,03,186,*73
$GPGSV,3,3,10,31,03,329,,46,,,*43
$GPRMC,221134.000,A,3700.0450,N,12203.8068,W,0.26,53.53,290715,,,A*46
$GPVTG,53.53,T,,M,0.26,N,0.49,K,A*04
$GPGGA,221135.000,3700.0450,N,12203.8068,W,1,04,1.62,215.8,M,-26.6,M,,*59
$GPGSA,A,3,12,05,06,25,,,,,,,,,1.88,1.62,0.95*0D
$GPRMC,221135.000,A,3700.0450,N,12203.8068,W,0.15,53.47,290715,,,A*42
$GPVTG,53.47,T,,M,0.15,N,0.28,K,A*06
$GPGGA,221136.000,3700.0451,N,12203.8067,W,1,04,1.62,215.8,M,-26.6,M,,*54
$GPGSA,A,3,12,05,06,25,,,,,,,,,1.88,1.62,0.95*0D
$GPRMC,221136.000,A,3700.0451,N,12203.8067,W,0.15,77.00,290715,,,A*4A
$GPVTG,77.00,T,,M,0.15,N,0.28,K,A*03
$GPGGA,221137.000,3700.0451,N,12203.8067,W,1,04,1.62,215.8,M,-26.6,M,,*55
$GPGSA,A,3,12,05,06,25,,,,,,,,,1.88,1.62,0.95*0D
$GPRMC,221137.000,A,3700.0451,N,12203.8067,W,0.06,103.92,290715,,,A*70
$GPVTG,103.92,T,,M,0.06,N,0.10,K,A*33
$GPGGA,221138.000,3700.0451,N,12203.8067,W,1,04,1.62,215.8,M,-26.6,M,,*5A
$GPGSA,A,3,12,05,06,25,,,,,,,,,1.88,1.62,0.95*0D
$GPRMC,221138.000,A,3700.0451,N,12203.8067,W,0.02,210.89,290715,,,A*70
$GPVTG,210.89,T,,M,0.02,N,0.03,K,A*3E
$GPGGA,221139.000,3700.0450,N,12203.8067,W,1,04,1.62,215.8,M,-26.6,M,,*5A
$GPGSA,A,3,12,05,06,25,,,,,,,,,1.88,1.62,0.95*0D
$GPGSV,3,1,10,12,87,358,24,02,71,049,16,25,46,316,29,06,31,046,25*7B
$GPGSV,3,2,10,05,30,143,19,29,25,283,16,24,25,210,15,20,03,186,*7B
$GPGSV,3,3,10,31,03,329,,47,,,*42
$GPRMC,221139.000,A,3700.0450,N,12203.8067,W,0.12,152.87,290715,,,A*7A
$GPVTG,152.87,T,,M,0.12,N,0.22,K,A*37
$GPGGA,221140.000,3700.0450,N,12203.8066,W,1,04,1.62,215.8,M,-26.6,M,,*55
$GPGSA,A,3,12,05,06,25,,,,,,,,,1.88,1.62,0.95*0D
$GPRMC,221140.000,A,3700.0450,N,12203.8066,W,0.21,169.74,290715,,,A*71
$GPVTG,169.74,T,,M,0.21,N,0.39,K,A*39
$GPGGA,221141.000,3700.0449,N,12203.8066,W,1,04,1.62,215.8,M,-26.6,M,,*5C
$GPGSA,A,3,12,05,06,25,,,,,,,,,1.88,1.62,0.95*0D
$GPRMC,221141.000,A,3700.0449,N,12203.8066,W,0.30,202.61,290715,,,A*72
$GPVTG,202.61,T,,M,0.30,N,0.55,K,A*39
$GPGGA,221142.000,3700.0448,N,12203.8067,W,1,04,1.62,215.8,M,-26.6,M,,*5F
$GPGSA,A,3,12,05,06,25,,,,,,,,,1.88,1.62,0.95*0D
$GPRMC,221142.000,A,3700.0448,N,12203.8067,W,0.41,202.23,290715,,,A*71
$GPVTG,202.23,T,,M,0.41,N,0.76,K,A*38
$GPGGA,221143.000,3700.0447,N,12203.8067,W,1,04,1.62,215.8,M,-26.6,M,,*51
$GPGSA,A,3,12,05,06,25,,,,,,,,,1.88,1.62,0.95*0D
$GPRMC,221143.000,A,3700.0447,N,12203.8067,W,0.53,202.56,290715,,,A*7E
$GPVTG,202.56,T,,M,0.53,N,0.98,K,A*39
$GPGGA,221144.000,3700.0446,N,12203.8068,W,1,04,1.62,215.8,M,-26.6,M,,*58
$GPGSA,A,3,12,05,06,25,,,,,,,,,1.88,1.62,0.95*0D
$GPGSV,3,1,10,12,87,000,25,02,71,049,16,25,46,316,31,06,31,046,26*7E
$GPGSV,3,2,10,05,30,143,13,29,25,283,16,24,25,210,16,20,03,186,*72
$GPGSV,3,3,10,31,03,329,,49,,,*4C
$GPRMC,221144.000,A,3700.0446,N,12203.8068,W,0.71,197.86,290715,,,A*75
$GPVTG,197.86,T,,M,0.71,N,1.31,K,A*39
$GPGGA,221145.000,3700.0432,N,12203.8072,W,1,04,1.62,216.3,M,-26.6,M,,*59
$GPGSA,A,3,12,05,06,25,,,,,,,,,1.88,1.62,0.95*0D
$GPRMC,221145.000,A,3700.0432,N,12203.8072,W,1.06,204.04,290715,,,A*7E
$GPVTG,204.04,T,,M,1.06,N,1.97,K,A*37
$GPGGA,221146.000,3700.0423,N,12203.8073,W,1,04,1.62,216.5,M,-26.6,M,,*5D
$GPGSA,A,3,12,05,06,25,,,,,,,,,1.88,1.62,0.95*0D
$GPRMC,221146.000,A,3700.0423,N,12203.8073,W,1.14,198.67,290715,,,A*7C
$GPVTG,198.67,T,,M,1.14,N,2.12,K,A*39
$GPGGA,221147.000,3700.0413,N,12203.8072,W,1,04,1.62,216.7,M,-26.6,M,,*5C
$GPGSA,A,3,12,05,06,25,,,,,,,,,1.87,1.62,0.95*02
$GPRMC,221147.000,A,3700.0413,N,12203.8072,W,1.21,192.97,290715,,,A*7C
$GPVTG,192.97,T,,M,1.21,N,2.25,K,A*3E
$GPGGA,221148.000,3700.0404,N,12203.8071,W,1,04,1.62,216.9,M,-26.6,M,,*58
$GPGSA,A,3,12,05,06,25,,,,,,,,,1.88,1.62,0.95*0D
$GPRMC,221148.000,A,3700.0404,N,12203.8071,W,1.28,191.44,290715,,,A*72
$GPVTG,191.44,T,,M,1.28,N,2.37,K,A*39
$GPGGA,221149.000,3700.0395,N,12203.8069,W,1,04,1.62,217.1,M,-26.6,M,,*56
$GPGSA,A,3,12,05,06,25,,,,,,,,,1.88,1.62,0.95*0D
$GPGSV,3,1,10,12,87,000,25,02,71,049,17,25,46,316,31,06,31,046,27*7E
$GPGSV,3,2,10,05,30,143,13,29,25,283,15,24,25,210,15,20,03,186,*72
$GPGSV,3,3,10,31,03,329,,49,,,*4C
$GPRMC,221149.000,A,3700.0395,N,12203.8069,W,1.32,187.72,290715,,,A*7C
$GPVTG,187.72,T,,M,1.32,N,2.45,K,A*35
$GPGGA,221150.000,3700.0387,N,12203.8068,W,1,04,1.62,217.3,M,-26.6,M,,*5E
$GPGSA,A,3,12,05,06,25,,,,,,,,,1.88,1.62,0.95*0D
$GPRMC,221150.000,A,3700.0387,N,12203.8068,W,1.36,185.65,290715,,,A*76
$GPVTG,185.65,T,,M,1.36,N,2.52,K,A*33
$GPGGA,221151.000,3700.0379,N,12203.8067,W,1,04,1.62,217.5,M,-26.6,M,,*57
$GPGSA,A,3,12,05,06,25,,,,,,,,,1.87,1.62,0.95*02
$GPRMC,221151.000,A,3700.0379,N,12203.8067,W,1.37,184.27,290715,,,A*7F
$GPVTG,184.27,T,,M,1.37,N,2.54,K,A*33
$GPGGA,221152.000,3700.0375,N,12203.8066,W,1,04,1.62,217.6,M,-26.6,M,,*5A
$GPGSA,A,3,12,05,06,25,,,,,,,,,1.88,1.62,0.95*0D
$GPRMC,221152.000,A,3700.0375,N,12203.8066,W,1.33,180.30,290715,,,A*77
$GPVTG,180.30,T,,M,1.33,N,2.47,K,A*37
$GPGGA,221153.000,3700.0370,N,12203.8064,W,1,04,1.62,217.8,M,-26.6,M,,*52
$GPGSA,A,3,12,05,06,25,,,,,,,,,1.88,1.62,0.95*0D
$GPRMC,221153.000,A,3700.0370,N,12203.8064,W,1.27,178.06,290715,,,A*76
$GPVTG,178.06,T,,M,1.27,N,2.35,K,A*35
$GPGGA,221154.000,3700.0362,N,12203.8061,W,1,04,1.62,217.9,M,-26.6,M,,*52
$GPGSA,A,3,12,05,06,25,,,,,,,,,1.88,1.62,0.95*0D
$GPGSV,3,1,10,12,87,000,25,02,71,049,19,25,46,316,31,06,31,046,26*71
$GPGSV,3,2,10,05,30,143,14,29,25,283,15,24,25,209,16,20,04,186,*79
$GPGSV,3,3,10,31,03,329,,50,,,*44
$GPRMC,221154.000,A,3700.0362,N,12203.8061,W,1.36,172.21,290715,,,A*78
$GPVTG,172.21,T,,M,1.36,N,2.52,K,A*3B
$GPGGA,221155.000,3700.0354,N,12203.8060,W,1,04,1.62,218.1,M,-26.6,M,,*50
$GPGSA,A,3,12,05,06,25,,,,,,,,,1.88,1.62,0.95*0D
$GPRMC,221155.000,A,3700.0354,N,12203.8060,W,1.37,173.07,290715,,,A*79
$GPVTG,173.07,T,,M,1.37,N,2.53,K,A*3E
$GPGGA,221156.000,3700.0348,N,12203.8060,W,1,04,1.62,218.2,M,-26.6,M,,*5D
$GPGSA,A,3,12,05,06,25,,,,,,,,,1.88,1.62,0.95*0D
$GPRMC,221156.000,A,3700.0348,N,12203.8060,W,1.35,176.20,290715,,,A*75
$GPVTG,176.20,T,,M,1.35,N,2.49,K,A*37
$GPGGA,221157.000,3700.0344,N,12203.8060,W,1,04,1.62,218.3,M,-26.6,M,,*51
$GPGSA,A,3,12,05,06,25,,,,,,,,,1.88,1.62,0.95*0D
$GPRMC,221157.000,A,3700.0344,N,12203.8060,W,1.27,177.91,290715,,,A*70
$GPVTG,177.91,T,,M,1.27,N,2.35,K,A*34
$GPGGA,221158.000,3700.0340,N,12203.8059,W,1,04,1.62,218.5,M,-26.6,M,,*56
$GPGSA,A,3,12,05,06,25,,,,,,,,,1.88,1.62,0.95*0D
$GPRMC,221158.000,A,3700.0340,N,12203.8059,W,1.25,180.25,290715,,,A*74
$GPVTG,180.25,T,,M,1.25,N,2.31,K,A*35
$GPGGA,221159.000,3700.0336,N,12203.8057,W,1,04,1.62,218.7,M,-26.6,M,,*5A
$GPGSA,A,3,12,05,06,25,,,,,,,,,1.88,1.62,0.95*0D
$GPGSV,3,1,10,12,87,000,25,02,71,049,19,25,46,315,32,06,31,046,26*71
$GPGSV,3,2,10,05,30,143,17,29,25,283,13,24,25,209,15,20,04,186,*7F
$GPGSV,3,3,10,31,03,329,,42,,,*47
$GPRMC,221159.000,A,3700.0336,N,12203.8057,W,1.18,177.58,290715,,,A*76
$GPVTG,177.58,T,,M,1.18,N,2.19,K,A*33
$GPGGA,221200.000,3700.0337,N,12203.8056,W,1,04,1.62,219.0,M,-26.6,M,,*53
$GPGSA,A,3,12,05,06,25,,,,,,,,,1.88,1.62,0.95*0D
$GPRMC,221200.000,A,3700.0337,N,12203.8056,W,1.03,178.04,290715,,,A*75
$GPVTG,178.04,T,,M,1.03,N,1.90,K,A*3D
$GPGGA,221201.000,3700.0337,N,12203.8056,W,1,04,1.62,219.3,M,-26.6,M,,*51
$GPGSA,A,3,12,05,06,25,,,,,,,,,1.88,1.62,0.95*0D
$GPRMC,221201.000,A,3700.0337,N,12203.8056,W,0.96,177.34,290715,,,A*75
$GPVTG,177.34,T,,M,0.96,N,1.79,K,A*3B
$GPGGA,221202.000,3700.0338,N,12203.8054,W,1,04,1.62,219.7,M,-26.6,M,,*5B
$GPGSA,A,3,12,05,06,25,,,,,,,,,1.88,1.62,0.95*0D
$GPRMC,221202.000,A,3700.0338,N,12203.8054,W,0.84,173.60,290715,,,A*7D
$GPVTG,173.60,T,,M,0.84,N,1.56,K,A*30
$GPGGA,221203.000,3700.0341,N,12203.8052,W,1,04,1.62,220.0,M,-26.6,M,,*5F
$GPGSA,A,3,12,05,06,25,,,,,,,,,1.88,1.62,0.95*0D
$GPRMC,221203.000,A,3700.0341,N,12203.8052,W,0.75,168.55,290715,,,A*76
$GPVTG,168.55,T,,M,0.75,N,1.39,K,A*3B
$GPGGA,221204.000,3700.0344,N,12203.8051,W,1,04,1.62,220.3,M,-26.6,M,,*5D
$GPGSA,A,3,12,05,06,25,,,,,,,,,1.88,1.62,0.95*0D
$GPGSV,3,1,10,12,87,000,26,02,71,049,18,25,46,315,32,06,31,046,23*76
$GPGSV,3,2,10,05,30,143,18,29,25,283,13,24,25,209,14,20,04,186,*71
$GPGSV,3,3,10,31,03,329,,42,,,*47
$GPRMC,221204.000,A,3700.0344,N,12203.8051,W,0.63,168.36,290715,,,A*75
$GPVTG,168.36,T,,M,0.63,N,1.18,K,A*3A
$GPGGA,221205.000,3700.0353,N,12203.8049,W,1,04,1.62,220.6,M,-26.6,M,,*56
$GPGSA,A,3,12,05,06,25,,,,,,,,,1.88,1.62,0.95*0D
$GPRMC,221205.000,A,3700.0353,N,12203.8049,W,0.41,162.27,290715,,,A*71
$GPVTG,162.27,T,,M,0.41,N,0.76,K,A*39
$GPGGA,221206.000,3700.0358,N,12203.8047,W,1,04,1.62,220.7,M,-26.6,M,,*51
$GPGSA,A,3,12,05,06,25,,,,,,,,,1.88,1.62,0.95*0D
$GPRMC,221206.000,A,3700.0358,N,12203.8047,W,0.33,145.23,290715,,,A*73
$GPVTG,145.23,T,,M,0.33,N,0.61,K,A*3B
$GPGGA,221207.000,3700.0363,N,12203.8045,W,1,04,1.62,221.1,M,-26.6,M,,*5D
$GPGSA,A,3,12,05,06,25,,,,,,,,,1.88,1.62,0.95*0D
$GPRMC,221207.000,A,3700.0363,N,12203.8045,W,0.32,131.27,290715,,,A*7E
$GPVTG,131.27,T,,M,0.32,N,0.60,K,A*3C
$GPGGA,221208.000,3700.0368,N,12203.8043,W,1,04,1.62,221.2,M,-26.6,M,,*5C
$GPGSA,A,3,12,05,06,25,,,,,,,,,1.88,1.62,0.95*0D
$GPRMC,221208.000,A,3700.0368,N,12203.8043,W,0.26,116.55,290715,,,A*79
$GPVTG,116.55,T,,M,0.26,N,0.48,K,A*33
$GPGGA,221209.000,3700.0368,N,12203.8042,W,1,04,1.62,221.2,M,-26.6,M,,*5C
$GPGSA,A,3,12,05,06,25,,,,,,,,,1.88,1.62,0.95*0D
$GPGSV,3,1,10,12,87,000,26,02,71,049,18,25,46,315,32,06,31,046,22*77
$GPGSV,3,2,10,05,30,143,21,29,25,283,,24,25,209,16,20,04,186,*7B
$GPGSV,3,3,10,31,03,329,,33,,,*41
$GPRMC,221209.000,A,3700.0368,N,12203.8042,W,0.22,88.43,290715,,,A*4C
$GPVTG,88.43,T,,M,0.22,N,0.41,K,A*0F
$GPGGA,221210.000,3700.0368,N,12203.8041,W,1,04,1.62,221.2,M,-26.6,M,,*57
$GPGSA,A,3,12,05,06,25,,,,,,,,,1.88,1.62,0.95*0D
$GPRMC,221210.000,A,3700.0368,N,12203.8041,W,0.20,60.96,290715,,,A*4B
$GPVTG,60.96,T,,M,0.20,N,0.38,K,A*0D
$GPGGA,221211.000,3700.0369,N,12203.8041,W,1,04,1.62,221.2,M,-26.6,M,,*57
$GPGSA,A,3,12,05,06,25,,,,,,,,,1.88,1.62,0.95*0D
$GPRMC,221211.000,A,3700.0369,N,12203.8041,W,0.31,24.73,290715,,,A*40
$GPVTG,24.73,T,,M,0.31,N,0.57,K,A*0F
$GPGGA,221212.000,3700.0370,N,12203.8040,W,1,04,1.62,221.2,M,-26.6,M,,*5D
$GPGSA,A,3,12,05,06,25,,,,,,,,,1.88,1.62,0.95*0D
$GPRMC,221212.000,A,3700.0370,N,12203.8040,W,0.43,12.41,290715,,,A*4B
$GPVTG,12.41,T,,M,0.43,N,0.79,K,A*02
$GPGGA,221213.000,3700.0371,N,12203.8040,W,1,04,1.84,221.2,M,-26.6,M,,*55
$GPGSA,A,3,12,05,06,25,,,,,,,,,3.63,1.84,3.13*0F
$GPRMC,221213.000,A,3700.0371,N,12203.8040,W,0.50,18.46,290715,,,A*44
$GPVTG,18.46,T,,M,0.50,N,0.93,K,A*09
$GPGGA,221214.000,3700.0372,N,12203.8039,W,1,04,1.62,221.2,M,-26.6,M,,*57
$GPGSA,A,3,12,05,06,25,,,,,,,,,1.88,1.62,0.95*0D
$GPGSV,3,1,10,12,87,000,25,02,71,049,15,25,46,315,32,05,30,143,20*7D
$GPGSV,3,2,10,06,30,046,21,29,25,283,,24,25,209,17,20,04,186,*7D
$GPGSV,3,3,10,31,03,329,,37,,,*45
$GPRMC,221214.000,A,3700.0372,N,12203.8039,W,0.64,14.11,290715,,,A*47
$GPVTG,14.11,T,,M,0.64,N,1.18,K,A*02
$GPGGA,221215.000,3700.0378,N,12203.8036,W,1,04,1.84,221.4,M,-26.6,M,,*5D
$GPGSA,A,3,12,05,06,25,,,,,,,,,3.64,1.84,3.13*08
$GPRMC,221215.000,A,3700.0378,N,12203.8036,W,0.69,17.43,290715,,,A*4A
$GPVTG,17.43,T,,M,0.69,N,1.28,K,A*08
$GPGGA,221216.000,3700.0383,N,12203.8032,W,1,04,1.62,221.6,M,-26.6,M,,*54
$GPGSA,A,3,12,05,06,25,,,,,,,,,1.88,1.62,0.95*0D
$GPRMC,221216.000,A,3700.0383,N,12203.8032,W,0.72,21.57,290715,,,A*43
$GPVTG,21.57,T,,M,0.72,N,1.34,K,A*0F
$GPGGA,221217.000,3700.0389,N,12203.8029,W,1,04,1.62,221.8,M,-26.6,M,,*5B
$GPGSA,A,3,12,05,06,25,,,,,,,,,1.88,1.62,0.95*0D
$GPRMC,221217.000,A,3700.0389,N,12203.8029,W,0.77,23.17,290715,,,A*41
$GPVTG,23.17,T,,M,0.77,N,1.43,K,A*0C
$GPGGA,221218.000,3700.0392,N,12203.8025,W,1,04,1.62,222.0,M,-26.6,M,,*59
$GPGSA,A,3,12,05,06,25,,,,,,,,,1.88,1.62,0.95*0D
$GPRMC,221218.000,A,3700.0392,N,12203.8025,W,0.79,22.65,290715,,,A*42
$GPVTG,22.65,T,,M,0.79,N,1.47,K,A*02
$GPGGA,221219.000,3700.0394,N,12203.8023,W,1,04,1.62,222.2,M,-26.6,M,,*5A
$GPGSA,A,3,12,05,06,25,,,,,,,,,1.88,1.62,0.95*0D
$GPGSV,3,1,10,12,87,002,26,02,71,049,16,25,46,315,32,05,30,143,18*74
$GPGSV,3,2,10,06,30,046,19,29,25,283,,24,25,209,17,20,04,186,*76
$GPGSV,3,3,10,31,03,329,,39,,,*4B
$GPRMC,221219.000,A,3700.0394,N,12203.8023,W,0.78,20.48,290715,,,A*4F
$GPVTG,20.48,T,,M,0.78,N,1.44,K,A*0D
$GPGGA,221220.000,3700.0398,N,12203.8020,W,1,04,1.62,222.4,M,-26.6,M,,*59
$GPGSA,A,3,12,05,06,25,,,,,,,,,1.88,1.62,0.95*0D
$GPRMC,221220.000,A,3700.0398,N,12203.8020,W,0.79,20.53,290715,,,A*41
$GPVTG,20.53,T,,M,0.79,N,1.46,K,A*04
$GPGGA,221221.000,3700.0405,N,12203.8018,W,1,04,1.62,222.6,M,-26.6,M,,*52
$GPGSA,A,3,12,05,06,25,,,,,,,,,1.88,1.62,0.95*0D
$GPRMC,221221.000,A,3700.0405,N,12203.8018,W,0.88,14.68,290715,,,A*49
$GPVTG,14.68,T,,M,0.88,N,1.63,K,A*02
$GPGGA,221222.000,3700.0409,N,12203.8016,W,1,04,1.85,222.8,M,-26.6,M,,*54
$GPGSA,A,3,12,05,06,25,,,,,,,,,3.64,1.85,3.14*0E
$GPRMC,221222.000,A,3700.0409,N,12203.8016,W,0.89,12.50,290715,,,A*44
$GPVTG,12.50,T,,M,0.89,N,1.66,K,A*0B
$GPGGA,221223.000,3700.0414,N,12203.8014,W,1,04,1.85,223.0,M,-26.6,M,,*52
$GPGSA,A,3,12,05,06,25,,,,,,,,,3.64,1.85,3.14*0E
$GPRMC,221223.000,A,3700.0414,N,12203.8014,W,0.90,14.05,290715,,,A*45
$GPVTG,14.05,T,,M,0.90,N,1.66,K,A*05
$GPGGA,221224.000,3700.0418,N,12203.8012,W,1,04,1.85,223.2,M,-26.6,M,,*5D
$GPGSA,A,3,12,05,06,25,,,,,,,,,3.64,1.85,3.14*0E
$GPGSV,3,1,10,12,87,002,23,02,71,049,16,25,46,315,31,05,30,143,19*73
$GPGSV,3,2,10,06,30,046,19,29,25,283,,24,25,209,17,20,04,186,*76
$GPGSV,3,3,10,31,03,329,,44,,,*41
$GPRMC,221224.000,A,3700.0418,N,12203.8012,W,0.86,15.16,290715,,,A*4C
$GPVTG,15.16,T,,M,0.86,N,1.60,K,A*07
$GPGGA,221225.000,3700.0424,N,12203.8012,W,1,04,1.62,223.4,M,-26.6,M,,*5C
$GPGSA,A,3,12,05,06,25,,,,,,,,,1.88,1.62,0.95*0D
$GPRMC,221225.000,A,3700.0424,N,12203.8012,W,0.90,12.87,290715,,,A*4A
$GPVTG,12.87,T,,M,0.90,N,1.67,K,A*08
$GPGGA,221226.000,3700.0428,N,12203.8007,W,1,04,1.85,223.5,M,-26.6,M,,*5F
$GPGSA,A,3,12,05,06,25,,,,,,,,,3.64,1.85,3.14*0E
$GPRMC,221226.000,A,3700.0428,N,12203.8007,W,0.89,17.90,290715,,,A*4A
$GPVTG,17.90,T,,M,0.89,N,1.65,K,A*01
$GPGGA,221227.000,3700.0433,N,12203.8004,W,1,04,1.62,223.7,M,-26.6,M,,*5C
$GPGSA,A,3,12,05,06,25,,,,,,,,,1.88,1.62,0.95*0D
$GPRMC,221227.000,A,3700.0433,N,12203.8004,W,0.89,22.49,290715,,,A*40
$GPVTG,22.49,T,,M,0.89,N,1.66,K,A*00
$GPGGA,221228.000,3700.0436,N,12203.8002,W,1,04,1.62,223.9,M,-26.6,M,,*5E
$GPGSA,A,3,12,05,06,25,,,,,,,,,1.88,1.62,0.95*0D
$GPRMC,221228.000,A,3700.0436,N,12203.8002,W,0.91,20.23,290715,,,A*4B
$GPVTG,20.23,T,,M,0.91,N,1.68,K,A*09
$GPGGA,221229.000,3700.0440,N,12203.8003,W,1,04,1.62,224.1,M,-26.6,M,,*50
$GPGSA,A,3,12,05,06,25,,,,,,,,,1.88,1.62,0.95*0D
$GPGSV,3,1,10,12,87,002,21,02,71,049,14,25,46,315,30,05,30,143,19*72
$GPGSV,3,2,10,06,30,046,18,29,25,283,,24,25,209,17,20,04,186,*77
$GPGSV,3,3,10,31,03,329,,44,,,*41
$GPRMC,221229.000,A,3700.0440,N,12203.8003,W,0.90,14.48,290715,,,A*41
$GPVTG,14.48,T,,M,0.90,N,1.68,K,A*02
$GPGGA,221230.000,3700.0441,N,12203.8007,W,1,04,1.85,224.2,M,-26.6,M,,*57
$GPGSA,A,3,12,05,06,25,,,,,,,,,3.65,1.85,3.14*0F
$GPRMC,221230.000,A,3700.0441,N,12203.8007,W,0.82,10.92,290715,,,A*4C
$GPVTG,10.92,T,,M,0.82,N,1.53,K,A*0A
$GPGGA,221231.000,3700.0445,N,12203.8006,W,1,04,1.85,224.4,M,-26.6,M,,*55
$GPGSA,A,3,12,05,06,25,,,,,,,,,3.65,1.85,3.15*0E
$GPRMC,221231.000,A,3700.0445,N,12203.8006,W,0.83,9.15,290715,,,A*7E
$GPVTG,9.15,T,,M,0.83,N,1.54,K,A*3B
$GPGGA,221232.000,3700.0449,N,12203.8005,W,1,04,1.85,224.6,M,-26.6,M,,*5B
$GPGSA,A,3,12,05,06,25,,,,,,,,,3.65,1.85,3.14*0F
$GPRMC,221232.000,A,3700.0449,N,12203.8005,W,0.81,11.53,290715,,,A*4B
$GPVTG,11.53,T,,M,0.81,N,1.51,K,A*07
$GPGGA,221233.000,3700.0454,N,12203.8003,W,1,04,1.85,224.7,M,-26.6,M,,*51
$GPGSA,A,3,12,05,06,25,,,,,,,,,3.65,1.85,3.14*0F
$GPRMC,221233.000,A,3700.0454,N,12203.8003,W,0.82,12.91,290715,,,A*4E
$GPVTG,12.91,T,,M,0.82,N,1.53,K,A*0B
$GPGGA,221234.000,3700.0458,N,12203.7999,W,1,04,1.85,224.9,M,-26.6,M,,*51
$GPGSA,A,3,12,05,06,25,,,,,,,,,3.65,1.85,3.15*0E
$GPGSV,3,1,10,12,87,002,22,02,71,049,14,25,46,315,29,05,30,143,18*78
$GPGSV,3,2,10,06,30,046,18,29,25,283,,24,25,209,17,20,04,186,*77
$GPGSV,3,3,10,31,03,329,,40,,,*45
$GPRMC,221234.000,A,3700.0458,N,12203.7999,W,0.81,17.90,290715,,,A*47
$GPVTG,17.90,T,,M,0.81,N,1.51,K,A*0E
$GPGGA,221235.000,3700.0461,N,12203.7997,W,1,04,1.62,225.0,M,-26.6,M,,*55
$GPGSA,A,3,12,05,06,25,,,,,,,,,1.88,1.62,0.95*0D
$GPRMC,221235.000,A,3700.0461,N,12203.7997,W,0.79,19.83,290715,,,A*49
$GPVTG,19.83,T,,M,0.79,N,1.47,K,A*02
$GPGGA,221236.000,3700.0465,N,12203.7994,W,1,04,1.62,225.2,M,-26.6,M,,*53
$GPGSA,A,3,12,05,06,25,,,,,,,,,1.88,1.62,0.95*0D
$GPRMC,221236.000,A,3700.0465,N,12203.7994,W,0.83,17.14,290715,,,A*48
$GPVTG,17.14,T,,M,0.83,N,1.54,K,A*05
$GPGGA,221237.000,3700.0468,N,12203.7988,W,1,04,1.62,225.4,M,-26.6,M,,*54
$GPGSA,A,3,12,05,06,25,,,,,,,,,1.88,1.62,0.95*0D
$GPRMC,221237.000,A,3700.0468,N,12203.7988,W,0.81,27.57,290715,,,A*4F
$GPVTG,27.57,T,,M,0.81,N,1.50,K,A*07
$GPGGA,221238.000,3700.0470,N,12203.7984,W,1,04,1.62,225.6,M,-26.6,M,,*5C
$GPGSA,A,3,12,05,06,25,,,,,,,,,1.88,1.62,0.95*0D
$GPRMC,221238.000,A,3700.0470,N,12203.7984,W,0.80,32.55,290715,,,A*42
$GPVTG,32.55,T,,M,0.80,N,1.49,K,A*08
$GPGGA,221239.000,3700.0473,N,12203.7978,W,1,04,1.62,225.8,M,-26.6,M,,*53
$GPGSA,A,3,12,05,06,25,,,,,,,,,1.88,1.62,0.95*0D
$GPGSV,3,1,10,12,87,002,22,02,71,049,13,25,46,315,28,48,45,197,*75
$GPGSV,3,2,10,05,30,143,18,06,30,046,18,29,25,283,,24,25,209,16*76
$GPGSV,3,3,10,20,04,186,,31,03,329,*78
$GPRMC,221239.000,A,3700.0473,N,12203.7978,W,0.82,38.06,290715,,,A*4D
$GPVTG,38.06,T,,M,0.82,N,1.52,K,A*0C
$GPGGA,221240.000,3700.0476,N,12203.7973,W,1,04,1.62,225.9,M,-26.6,M,,*52
$GPGSA,A,3,12,05,06,25,,,,,,,,,1.88,1.62,0.95*0D
$GPRMC,221240.000,A,3700.0476,N,12203.7973,W,0.85,40.83,290715,,,A*48
$GPVTG,40.83,T,,M,0.85,N,1.57,K,A*0C
$GPGGA,221241.000,3700.0475,N,12203.7973,W,1,04,1.62,226.1,M,-26.6,M,,*5B
$GPGSA,A,3,12,05,06,25,,,,,,,,,1.88,1.62,0.95*0D
$GPRMC,221241.000,A,3700.0475,N,12203.7973,W,0.76,43.02,290715,,,A*4C
$GPVTG,43.02,T,,M,0.76,N,1.42,K,A*0E
$GPGGA,221242.000,3700.0474,N,12203.7973,W,1,04,1.62,226.2,M,-26.6,M,,*5A
$GPGSA,A,3,12,05,06,25,,,,,,,,,1.88,1.62,0.95*0D
$GPRMC,221242.000,A,3700.0474,N,12203.7973,W,0.71,46.11,290715,,,A*4E
$GPVTG,46.11,T,,M,0.71,N,1.31,K,A*0A
$GPGGA,221243.000,3700.0471,N,12203.7976,W,1,04,1.62,226.5,M,-26.6,M,,*5C
$GPGSA,A,3,12,05,06,25,,,,,,,,,1.88,1.62,0.95*0D
$GPRMC,221243.000,A,3700.0471,N,12203.7976,W,0.58,51.24,290715,,,A*44
$GPVTG,51.24,T,,M,0.58,N,1.07,K,A*04
$GPGGA,221244.000,3700.0467,N,12203.7979,W,1,04,1.62,226.6,M,-26.6,M,,*50
$GPGSA,A,3,12,05,06,25,,,,,,,,,1.88,1.62,0.95*0D
$GPGSV,3,1,10,12,87,002,23,02,71,049,14,25,46,315,25,48,45,197,*7E
$GPGSV,3,2,10,05,30,143,16,06,30,046,18,29,25,283,,24,25,209,16*78
$GPGSV,3,3,10,20,04,186,,31,03,329,*78
$GPRMC,221244.000,A,3700.0467,N,12203.7979,W,0.47,63.03,290715,,,A*41
$GPVTG,63.03,T,,M,0.47,N,0.88,K,A*08
$GPGGA,221245.000,3700.0464,N,12203.7980,W,1,04,1.62,226.7,M,-26.6,M,,*55
$GPGSA,A,3,12,05,06,25,,,,,,,,,1.88,1.62,0.95*0D
$GPRMC,221245.000,A,3700.0464,N,12203.7980,W,0.44,76.68,290715,,,A*4F
$GPVTG,76.68,T,,M,0.44,N,0.81,K,A*0B
$GPGGA,221246.000,3700.0463,N,12203.7981,W,1,04,1.62,226.9,M,-26.6,M,,*5E
$GPGSA,A,3,12,05,06,25,,,,,,,,,1.88,1.62,0.95*0D
$GPRMC,221246.000,A,3700.0463,N,12203.7981,W,0.43,82.92,290715,,,A*43
$GPVTG,82.92,T,,M,0.43,N,0.79,K,A*05
$GPGGA,221247.000,3700.0463,N,12203.7979,W,1,04,1.62,226.9,M,-26.6,M,,*58
$GPGSA,A,3,12,05,06,25,,,,,,,,,1.88,1.62,0.95*0D
$GPRMC,221247.000,A,3700.0463,N,12203.7979,W,0.44,90.80,290715,,,A*42
$GPVTG,90.80,T,,M,0.44,N,0.81,K,A*05
$GPGGA,221248.000,3700.0463,N,12203.7978,W,1,04,1.62,226.9,M,-26.6,M,,*56
$GPGSA,A,3,12,05,06,25,,,,,,,,,1.88,1.62,0.95*0D
$GPRMC,221248.000,A,3700.0463,N,12203.7978,W,0.47,104.86,290715,,,A*75
$GPVTG,104.86,T,,M,0.47,N,0.88,K,A*35
$GPGGA,221249.000,3700.0462,N,12203.7976,W,1,04,1.62,226.9,M,-26.6,M,,*58
$GPGSA,A,3,12,05,06,25,,,,,,,,,1.88,1.62,0.95*0D
$GPGSV,3,1,10,12,87,002,23,02,71,049,15,25,46,315,25,51,44,156,*7B
$GPGSV,3,2,10,05,31,143,15,06,30,046,17,29,25,283,,24,25,209,16*75
$GPGSV,3,3,10,20,04,186,,31,03,329,*78
$GPRMC,221249.000,A,3700.0462,N,12203.7976,W,0.46,116.96,290715,,,A*78
$GPVTG,116.96,T,,M,0.46,N,0.86,K,A*38
$GPGGA,221250.000,3700.0462,N,12203.7975,W,1,04,1.62,226.9,M,-26.6,M,,*53
$GPGSA,A,3,12,05,06,25,,,,,,,,,1.88,1.62,0.95*0D
$GPRMC,221250.000,A,3700.0462,N,12203.7975,W,0.46,127.29,290715,,,A*75
$GPVTG,127.29,T,,M,0.46,N,0.85,K,A*3D
$GPGGA,221251.000,3700.0461,N,12203.7974,W,1,04,1.62,226.9,M,-26.6,M,,*50
$GPGSA,A,3,12,05,06,25,,,,,,,,,1.88,1.62,0.95*0D
$GPRMC,221251.000,A,3700.0461,N,12203.7974,W,0.47,134.64,290715,,,A*7C
$GPVTG,134.64,T,,M,0.47,N,0.87,K,A*35
$GPGGA,221252.000,3700.0460,N,12203.7973,W,1,04,1.62,226.9,M,-26.6,M,,*55
$GPGSA,A,3,12,05,06,25,,,,,,,,,1.88,1.62,0.95*0D
$GPRMC,221252.000,A,3700.0460,N,12203.7973,W,0.28,137.25,290715,,,A*76
$GPVTG,137.25,T,,M,0.28,N,0.52,K,A*32
$GPGGA,221253.000,3700.0459,N,12203.7972,W,1,04,1.62,226.9,M,-26.6,M,,*5F
$GPGSA,A,3,12,05,06,25,,,,,,,,,1.88,1.62,0.95*0D
$GPRMC,221253.000,A,3700.0459,N,12203.7972,W,0.12,151.49,290715,,,A*7F
$GPVTG,151.49,T,,M,0.12,N,0.23,K,A*37
$GPGGA,221254.000,3700.0459,N,12203.7972,W,1,04,1.62,226.9,M,-26.6,M,,*58
$GPGSA,A,3,12,05,06,25,,,,,,,,,1.88,1.62,0.95*0D
$GPGSV,3,1,10,12,87,005,21,02,71,049,14,25,46,315,27,51,44,156,*7D
$GPGSV,3,2,10,05,31,143,20,06,30,046,17,29,25,283,,24,25,209,15*70
$GPGSV,3,3,10,20,04,186,,31,03,329,*78
$GPRMC,221254.000,A,3700.0459,N,12203.7972,W,0.05,60.51,290715,,,A*44
$GPVTG,60.51,T,,M,0.05,N,0.10,K,A*0B
$GPGGA,221255.000,3700.0459,N,12203.7972,W,1,04,1.62,226.9,M,-26.6,M,,*59
$GPGSA,A,3,12,05,06,25,,,,,,,,,1.88,1.62,0.95*0D
$GPRMC,221255.000,A,3700.0459,N,12203.7972,W,0.14,339.65,290715,,,A*7D
$GPVTG,339.65,T,,M,0.14,N,0.27,K,A*37
$GPGGA,221256.000,3700.0460,N,12203.7972,W,1,04,1.62,227.0,M,-26.6,M,,*58
$GPGSA,A,3,12,05,06,25,,,,,,,,,1.88,1.62,0.95*0D
$GPRMC,221256.000,A,3700.0460,N,12203.7972,W,0.24,344.27,290715,,,A*7B
$GPVTG,344.27,T,,M,0.24,N,0.44,K,A*3D
$GPGGA,221257.000,3700.0461,N,12203.7972,W,1,04,1.62,227.0,M,-26.6,M,,*58
$GPGSA,A,3,12,05,06,25,,,,,,,,,1.88,1.62,0.95*0D
$GPRMC,221257.000,A,3700.0461,N,12203.7972,W,0.33,332.43,290715,,,A*7E
$GPVTG,332.43,T,,M,0.33,N,0.61,K,A*3F
$GPGGA,221258.000,3700.0462,N,12203.7973,W,1,04,1.62,227.0,M,-26.6,M,,*55
$GPGSA,A,3,12,05,06,25,,,,,,,,,1.88,1.62,0.95*0D
$GPRMC,221258.000,A,3700.0462,N,12203.7973,W,0.38,326.31,290715,,,A*78
$GPVTG,326.31,T,,M,0.38,N,0.71,K,A*35
$GPGGA,221259.000,3700.0462,N,12203.7974,W,1,04,1.62,227.0,M,-26.6,M,,*53
$GPGSA,A,3,12,05,06,25,,,,,,,,,1.88,1.62,0.95*0D
$GPGSV,3,1,10,12,87,005,21,02,71,049,16,25,46,315,28,48,45,197,*74
$GPGSV,3,2,10,05,31,143,17,06,30,046,17,29,25,283,17,24,25,209,14*73
$GPGSV,3,3,10,20,04,186,,31,03,329,*78
$GPRMC,221259.000,A,3700.0462,N,12203.7974,W,0.45,320.05,290715,,,A*75
$GPVTG,320.05,T,,M,0.45,N,0.83,K,A*33
$GPGGA,221300.000,3700.0463,N,12203.7975,W,1,04,1.62,227.0,M,-26.6,M,,*5E
$GPGSA,A,3,12,05,06,25,,,,,,,,,1.88,1.62,0.95*0D
$GPRMC,221300.000,A,3700.0463,N,12203.7975,W,0.48,311.65,290715,,,A*71
$GPVTG,311.65,T,,M,0.48,N,0.88,K,A*31
$GPGGA,221301.000,3700.0464,N,12203.7977,W,1,04,1.62,227.0,M,-26.6,M,,*5A
$GPGSA,A,3,12,05,06,25,,,,,,,,,1.88,1.62,0.95*0D
$GPRMC,221301.000,A,3700.0464,N,12203.7977,W,0.60,302.05,290715,,,A*7B
$GPVTG,302.05,T,,M,0.60,N,1.11,K,A*3E
$GPGGA,221302.000,3700.0465,N,12203.7988,W,1,04,1.62,227.2,M,-26.6,M,,*5A
$GPGSA,A,3,12,05,06,25,,,,,,,,,1.88,1.62,0.95*0D
$GPRMC,221302.000,A,3700.0465,N,12203.7988,W,0.72,295.95,290715,,,A*7C
$GPVTG,295.95,T,,M,0.72,N,1.33,K,A*3B
$GPGGA,221303.000,3700.0465,N,12203.8002,W,1,04,1.62,227.4,M,-26.6,M,,*59
$GPGSA,A,3,12,05,06,25,,,,,,,,,1.88,1.62,0.95*0D
$GPRMC,221303.000,A,3700.0465,N,12203.8002,W,0.86,290.24,290715,,,A*7D
$GPVTG,290.24,T,,M,0.86,N,1.60,K,A*39
$GPGGA,221304.000,3700.0461,N,12203.8013,W,1,04,1.62,227.6,M,-26.6,M,,*58
$GPGSA,A,3,12,05,06,25,,,,,,,,,1.88,1.62,0.95*0D
$GPGSV,3,1,10,12,87,005,20,02,71,049,15,25,46,315,26,48,45,197,*78
$GPGSV,3,2,10,05,31,143,17,06,30,046,17,29,25,283,18,24,24,209,13*7A
$GPGSV,3,3,10,20,04,186,,31,03,329,*78
$GPRMC,221304.000,A,3700.0461,N,12203.8013,W,0.88,280.99,290715,,,A*77
$GPVTG,280.99,T,,M,0.88,N,1.64,K,A*34
$GPGGA,221305.000,3700.0457,N,12203.8024,W,1,04,1.62,227.7,M,-26.6,M,,*59
$GPGSA,A,3,12,05,06,25,,,,,,,,,1.88,1.62,0.95*0D
$GPRMC,221305.000,A,3700.0457,N,12203.8024,W,0.93,272.81,290715,,,A*79
$GPVTG,272.81,T,,M,0.93,N,1.72,K,A*3D
$GPGGA,221306.000,3700.0456,N,12203.8033,W,1,04,1.62,227.9,M,-26.6,M,,*53
$GPGSA,A,3,12,05,06,25,,,,,,,,,1.88,1.62,0.95*0D
$GPRMC,221306.000,A,3700.0456,N,12203.8033,W,0.92,266.74,290715,,,A*73
$GPVTG,266.74,T,,M,0.92,N,1.70,K,A*31
$GPGGA,221307.000,3700.0455,N,12203.8039,W,1,04,1.62,228.1,M,-26.6,M,,*5C
$GPGSA,A,3,12,05,06,25,,,,,,,,,1.88,1.62,0.95*0D
$GPRMC,221307.000,A,3700.0455,N,12203.8039,W,0.93,265.11,290715,,,A*7A
$GPVTG,265.11,T,,M,0.93,N,1.72,K,A*32
$GPGGA,221308.000,3700.0455,N,12203.8046,W,1,04,1.62,228.2,M,-26.6,M,,*58
$GPGSA,A,3,12,05,06,25,,,,,,,,,1.88,1.62,0.95*0D
$GPRMC,221308.000,A,3700.0455,N,12203.8046,W,0.96,264.52,290715,,,A*7E
$GPVTG,264.52,T,,M,0.96,N,1.78,K,A*3B
$GPGGA,221309.000,3700.0454,N,12203.8050,W,1,04,1.62,228.4,M,-26.6,M,,*59
$GPGSA,A,3,12,05,06,25,,,,,,,,,1.88,1.62,0.95*0D
$GPGSV,3,1,09,12,87,005,20,02,71,049,14,25,46,315,25,05,31,143,20*73
$GPGSV,3,2,09,06,30,046,18,29,26,283,19,24,24,209,14,20,04,186,*76
$GPGSV,3,3,09,31,03,329,*49
$GPRMC,221309.000,A,3700.0454,N,12203.8050,W,0.94,263.27,290715,,,A*7E
$GPVTG,263.27,T,,M,0.94,N,1.73,K,A*37
$GPGGA,221310.000,3700.0453,N,12203.8053,W,1,04,1.62,228.6,M,-26.6,M,,*57
$GPGSA,A,3,12,05,06,25,,,,,,,,,1.88,1.62,0.95*0D
$GPRMC,221310.000,A,3700.0453,N,12203.8053,W,0.89,261.31,290715,,,A*7B
$GPVTG,261.31,T,,M,0.89,N,1.64,K,A*38
$GPGGA,221311.000,3700.0452,N,12203.8056,W,1,04,1.62,228.8,M,-26.6,M,,*5C
$GPGSA,A,3,12,05,06,25,,,,,,,,,1.88,1.62,0.95*0D
$GPRMC,221311.000,A,3700.0452,N,12203.8056,W,0.85,260.65,290715,,,A*72
$GPVTG,260.65,T,,M,0.85,N,1.57,K,A*34
$GPGGA,221312.000,3700.0452,N,12203.8062,W,1,04,1.62,229.0,M,-26.6,M,,*51
$GPGSA,A,3,12,05,06,25,,,,,,,,,1.88,1.62,0.95*0D
$GPRMC,221312.000,A,3700.0452,N,12203.8062,W,0.86,260.21,290715,,,A*75
$GPVTG,260.21,T,,M,0.86,N,1.59,K,A*39
$GPGGA,221313.000,3700.0450,N,12203.8069,W,1,04,1.62,229.1,M,-26.6,M,,*58
$GPGSA,A,3,12,05,06,25,,,,,,,,,1.88,1.62,0.95*0D
$GPRMC,221313.000,A,3700.0450,N,12203.8069,W,0.86,256.53,290715,,,A*7D
$GPVTG,256.53,T,,M,0.86,N,1.60,K,A*33
$GPGGA,221314.000,3700.0444,N,12203.8078,W,1,04,1.62,229.3,M,-26.6,M,,*58
$GPGSA,A,3,12,05,06,25,,,,,,,,,1.88,1.62,0.95*0D
$GPGSV,3,1,10,12,87,005,20,02,71,049,13,25,46,315,25,51,44,156,*79
$GPGSV,3,2,10,05,31,143,21,06,30,046,18,29,26,283,20,24,24,209,13*78
$GPGSV,3,3,10,20,04,186,,31,03,329,*78
$GPRMC,221314.000,A,3700.0444,N,12203.8078,W,0.91,248.51,290715,,,A*74
$GPVTG,248.51,T,,M,0.91,N,1.69,K,A*31
$GPGGA,221315.000,3700.0440,N,12203.8084,W,1,04,1.62,229.4,M,-26.6,M,,*59
$GPGSA,A,3,12,05,06,25,,,,,,,,,1.88,1.62,0.95*0D
$GPRMC,221315.000,A,3700.0440,N,12203.8084,W,0.97,246.89,290715,,,A*7F
$GPVTG,246.89,T,,M,0.97,N,1.79,K,A*3D
$GPGGA,221316.000,3700.0439,N,12203.8091,W,1,04,1.62,229.6,M,-26.6,M,,*52
$GPGSA,A,3,12,05,06,25,,,,,,,,,1.88,1.62,0.95*0D
$GPRMC,221316.000,A,3700.0439,N,12203.8091,W,1.00,250.00,290715,,,A*7F
$GPVTG,250.00,T,,M,1.00,N,1.85,K,A*37
$GPGGA,221317.000,3700.0441,N,12203.8095,W,1,04,1.62,229.7,M,-26.6,M,,*59
$GPGSA,A,3,12,05,06,25,,,,,,,,,1.88,1.62,0.95*0D
$GPRMC,221317.000,A,3700.0441,N,12203.8095,W,0.96,256.59,290715,,,A*71
$GPVTG,256.59,T,,M,0.96,N,1.77,K,A*3E
$GPGGA,221318.000,3700.0441,N,12203.8099,W,1,04,1.62,229.8,M,-26.6,M,,*55
$GPGSA,A,3,12,05,06,25,,,,,,,,,1.88,1.62,0.95*0D
$GPRMC,221318.000,A,3700.0441,N,12203.8099,W,0.94,257.38,290715,,,A*76
$GPVTG,257.38,T,,M,0.94,N,1.75,K,A*38
$GPGGA,221319.000,3700.0439,N,12203.8101,W,1,04,1.62,230.0,M,-26.6,M,,*5B
$GPGSA,A,3,12,05,06,25,,,,,,,,,1.88,1.62,0.95*0D
$GPGSV,3,1,10,12,87,005,20,02,71,048,12,25,46,315,26,51,44,156,*7A
$GPGSV,3,2,10,05,31,143,23,06,30,046,18,29,26,283,20,24,24,209,14*7D
$GPGSV,3,3,10,20,04,186,,31,03,329,*78
$GPRMC,221319.000,A,3700.0439,N,12203.8101,W,0.86,249.58,290715,,,A*72
$GPVTG,249.58,T,,M,0.86,N,1.60,K,A*36
$GPGGA,221320.000,3700.0439,N,12203.8101,W,1,04,1.62,230.1,M,-26.6,M,,*50
$GPGSA,A,3,12,05,06,25,,,,,,,,,1.88,1.62,0.95*0D
$GPRMC,221320.000,A,3700.0439,N,12203.8101,W,0.74,244.13,290715,,,A*77
$GPVTG,244.13,T,,M,0.74,N,1.37,K,A*3B
$GPGGA,221321.000,3700.0438,N,12203.8101,W,1,04,1.62,230.3,M,-26.6,M,,*52
$GPGSA,A,3,12,05,06,25,,,,,,,,,1.88,1.62,0.95*0D
$GPRMC,221321.000,A,3700.0438,N,12203.8101,W,0.68,242.40,290715,,,A*7A
$GPVTG,242.40,T,,M,0.68,N,1.27,K,A*37
$GPGGA,221322.000,3700.0439,N,12203.8101,W,1,04,1.62,230.4,M,-26.6,M,,*57
$GPGSA,A,3,12,05,06,25,,,,,,,,,1.88,1.62,0.95*0D
$GPRMC,221322.000,A,3700.0439,N,12203.8101,W,0.61,239.80,290715,,,A*71
$GPVTG,239.80,T,,M,0.61,N,1.14,K,A*3E
$GPGGA,221323.000,3700.0441,N,12203.8102,W,1,04,1.62,230.5,M,-26.6,M,,*5B
$GPGSA,A,3,12,05,06,25,,,,,,,,,1.88,1.62,0.95*0D
$GPRMC,221323.000,A,3700.0441,N,12203.8102,W,0.57,243.45,290715,,,A*7D
$GPVTG,243.45,T,,M,0.57,N,1.06,K,A*3C
$GPGGA,221324.000,3700.0444,N,12203.8103,W,1,04,1.62,230.7,M,-26.6,M,,*5A
$GPGSA,A,3,12,05,06,25,,,,,,,,,1.88,1.62,0.95*0D
$GPGSV,3,1,10,12,87,005,21,02,71,048,,25,46,315,27,05,31,143,24*78
$GPGSV,3,2,10,06,30,046,18,29,26,283,20,24,24,209,16,20,04,186,*76
$GPGSV,3,3,10,31,03,329,,34,,,*46
$GPRMC,221324.000,A,3700.0444,N,12203.8103,W,0.56,257.18,290715,,,A*72
$GPVTG,257.18,T,,M,0.56,N,1.04,K,A*32
$GPGGA,221325.000,3700.0448,N,12203.8103,W,1,04,1.62,230.9,M,-26.6,M,,*59
$GPGSA,A,3,12,05,06,25,,,,,,,,,1.88,1.62,0.95*0D
$GPRMC,221325.000,A,3700.0448,N,12203.8103,W,0.53,269.23,290715,,,A*7F
$GPVTG,269.23,T,,M,0.53,N,0.99,K,A*37
$GPGGA,221326.000,3700.0453,N,12203.8102,W,1,04,1.62,231.1,M,-26.6,M,,*58
$GPGSA,A,3,12,05,06,25,,,,,,,,,1.88,1.62,0.95*0D
$GPRMC,221326.000,A,3700.0453,N,12203.8102,W,0.44,275.36,290715,,,A*78
$GPVTG,275.36,T,,M,0.44,N,0.81,K,A*31
$GPGGA,221327.000,3700.0453,N,12203.8103,W,1,04,1.62,231.1,M,-26.6,M,,*58
$GPGSA,A,3,12,05,06,25,,,,,,,,,1.88,1.62,0.95*0D
$GPRMC,221327.000,A,3700.0453,N,12203.8103,W,0.33,286.23,290715,,,A*70
$GPVTG,286.23,T,,M,0.33,N,0.62,K,A*34
$GPGGA,221328.000,3700.0453,N,12203.8104,W,1,04,1.62,231.1,M,-26.6,M,,*50
$GPGSA,A,3,12,05,06,25,,,,,,,,,1.88,1.62,0.95*0D
$GPRMC,221328.000,A,3700.0453,N,12203.8104,W,0.26,304.88,290715,,,A*76
$GPVTG,304.88,T,,M,0.26,N,0.48,K,A*32
$GPGGA,221329.000,3700.0454,N,12203.8105,W,1,04,1.62,231.1,M,-26.6,M,,*57
$GPGSA,A,3,12,05,06,25,,,,,,,,,1.88,1.62,0.95*0D
$GPGSV,3,1,10,12,88,009,21,02,71,048,,25,46,315,26,05,31,143,26*78
$GPGSV,3,2,10,06,30,046,16,29,26,283,20,24,24,209,16,20,04,186,*78
$GPGSV,3,3,10,31,03,329,,35,,,*47
$GPRMC,221329.000,A,3700.0454,N,12203.8105,W,0.44,345.89,290715,,,A*71
$GPVTG,345.89,T,,M,0.44,N,0.81,K,A*37
$GPGGA,221330.000,3700.0455,N,12203.8105,W,1,04,1.87,231.1,M,-26.6,M,,*55
$GPGSA,A,3,12,05,06,25,,,,,,,,,3.69,1.87,3.18*0D
$GPRMC,221330.000,A,3700.0455,N,12203.8105,W,0.63,8.44,290715,,,A*76
$GPVTG,8.44,T,,M,0.63,N,1.16,K,A*36
$GPGGA,221331.000,3700.0465,N,12203.8093,W,1,04,1.87,231.3,M,-26.6,M,,*5B
$GPGSA,A,3,12,05,06,25,,,,,,,,,3.69,1.87,3.18*0D
$GPRMC,221331.000,A,3700.0465,N,12203.8093,W,0.82,19.74,290715,,,A*46
$GPVTG,19.74,T,,M,0.82,N,1.52,K,A*0A
$GPGGA,221332.000,3700.0471,N,12203.8084,W,1,04,1.62,231.5,M,-26.6,M,,*56
$GPGSA,A,3,12,05,06,25,,,,,,,,,1.88,1.62,0.95*0D
$GPRMC,221332.000,A,3700.0471,N,12203.8084,W,0.91,28.62,290715,,,A*41
$GPVTG,28.62,T,,M,0.91,N,1.69,K,A*05
$GPGGA,221333.000,3700.0479,N,12203.8074,W,1,04,1.62,231.6,M,-26.6,M,,*53
$GPGSA,A,3,12,05,06,25,,,,,,,,,1.88,1.62,0.95*0D
$GPRMC,221333.000,A,3700.0479,N,12203.8074,W,1.02,33.81,290715,,,A*4B
$GPVTG,33.81,T,,M,1.02,N,1.89,K,A*07
$GPGGA,221334.000,3700.0483,N,12203.8070,W,1,04,1.62,231.8,M,-26.6,M,,*5B
$GPGSA,A,3,12,05,06,25,,,,,,,,,1.88,1.62,0.95*0D
$GPGSV,3,1,10,12,88,009,21,02,71,048,,25,46,315,28,05,31,143,26*76
$GPGSV,3,2,10,06,30,046,16,29,26,283,20,24,24,209,16,20,04,186,*78
$GPGSV,3,3,10,31,03,329,,36,,,*44
$GPRMC,221334.000,A,3700.0483,N,12203.8070,W,1.03,35.51,290715,,,A*47
$GPVTG,35.51,T,,M,1.03,N,1.92,K,A*07
$GPGGA,221335.000,3700.0487,N,12203.8064,W,1,04,1.62,232.0,M,-26.6,M,,*50
$GPGSA,A,3,12,05,06,25,,,,,,,,,1.88,1.62,0.95*0D
$GPRMC,221335.000,A,3700.0487,N,12203.8064,W,1.07,37.33,290715,,,A*45
$GPVTG,37.33,T,,M,1.07,N,1.98,K,A*0F
$GPGGA,221336.000,3700.0491,N,12203.8058,W,1,04,1.62,232.2,M,-26.6,M,,*59
$GPGSA,A,3,12,05,06,25,,,,,,,,,1.88,1.62,0.95*0D
$GPRMC,221336.000,A,3700.0491,N,12203.8058,W,1.09,42.40,290715,,,A*46
$GPVTG,42.40,T,,M,1.09,N,2.03,K,A*06
$GPGGA,221337.000,3700.0494,N,12203.8050,W,1,04,1.62,232.4,M,-26.6,M,,*53
$GPGSA,A,3,12,05,06,25,,,,,,,,,1.88,1.62,0.95*0D
$GPRMC,221337.000,A,3700.0494,N,12203.8050,W,1.12,41.65,290715,,,A*44
$GPVTG,41.65,T,,M,1.12,N,2.08,K,A*03
$GPGGA,221338.000,3700.0496,N,12203.8041,W,1,04,1.62,232.6,M,-26.6,M,,*5C
$GPGSA,A,3,12,05,06,25,,,,,,,,,1.88,1.62,0.95*0D
$GPRMC,221338.000,A,3700.0496,N,12203.8041,W,1.08,49.96,290715,,,A*46
$GPVTG,49.96,T,,M,1.08,N,2.01,K,A*05
$GPGGA,221339.000,3700.0499,N,12203.8037,W,1,04,1.62,232.8,M,-26.6,M,,*5D
$GPGSA,A,3,12,05,06,25,,,,,,,,,1.88,1.62,0.95*0D
$GPGSV,3,1,10,12,88,009,22,02,71,048,,25,46,315,29,05,31,143,26*74
$GPGSV,3,2,10,06,30,046,16,29,26,283,20,24,24,209,17,20,04,186,*79
$GPGSV,3,3,10,31,03,329,,38,,,*4A
$GPRMC,221339.000,A,3700.0499,N,12203.8037,W,1.05,47.94,290715,,,A*48
$GPVTG,47.94,T,,M,1.05,N,1.95,K,A*0A
$GPGGA,221340.000,3700.0501,N,12203.8033,W,1,04,1.62,233.0,M,-26.6,M,,*5E
$GPGSA,A,3,12,05,06,25,,,,,,,,,1.88,1.62,0.95*0D
$GPRMC,221340.000,A,3700.0501,N,12203.8033,W,1.02,49.71,290715,,,A*40
$GPVTG,49.71,T,,M,1.02,N,1.89,K,A*05
$GPGGA,221341.000,3700.0503,N,12203.8030,W,1,04,1.62,233.2,M,-26.6,M,,*5C
$GPGSA,A,3,12,05,06,25,,,,,,,,,1.88,1.62,0.95*0D
$GPRMC,221341.000,A,3700.0503,N,12203.8030,W,0.98,45.88,290715,,,A*48
$GPVTG,45.88,T,,M,0.98,N,1.81,K,A*05
$GPGGA,221342.000,3700.0504,N,12203.8025,W,1,04,1.62,233.3,M,-26.6,M,,*5D
$GPGSA,A,3,12,05,06,25,,,,,,,,,1.88,1.62,0.95*0D
$GPRMC,221342.000,A,3700.0504,N,12203.8025,W,0.92,52.57,290715,,,A*46
$GPVTG,52.57,T,,M,0.92,N,1.70,K,A*05
$GPGGA,221343.000,3700.0504,N,12203.8019,W,1,04,1.62,233.5,M,-26.6,M,,*55
$GPGSA,A,3,12,05,06,25,,,,,,,,,1.88,1.62,0.95*0D
$GPRMC,221343.000,A,3700.0504,N,12203.8019,W,0.87,57.89,290715,,,A*4A
$GPVTG,57.89,T,,M,0.87,N,1.61,K,A*07
$GPGGA,221344.000,3700.0504,N,12203.8012,W,1,04,1.62,233.7,M,-26.6,M,,*5B
$GPGSA,A,3,12,05,06,25,,,,,,,,,1.88,1.62,0.95*0D
$GPGSV,3,1,10,12,88,009,22,02,71,048,19,25,47,315,29,05,31,143,26*7D
$GPGSV,3,2,10,06,30,046,16,29,26,283,20,24,24,209,17,20,04,186,*79
$GPGSV,3,3,10,31,03,329,,38,,,*4A
$GPRMC,221344.000,A,3700.0504,N,12203.8012,W,0.90,66.33,290715,,,A*43
$GPVTG,66.33,T,,M,0.90,N,1.66,K,A*05
$GPGGA,221345.000,3700.0511,N,12203.7997,W,1,04,1.62,233.9,M,-26.6,M,,*5B
$GPGSA,A,3,12,05,06,25,,,,,,,,,1.88,1.62,0.95*0D
$GPRMC,221345.000,A,3700.0511,N,12203.7997,W,0.99,61.60,290715,,,A*45
$GPVTG,61.60,T,,M,0.99,N,1.83,K,A*06
$GPGGA,221346.000,3700.0517,N,12203.7987,W,1,04,1.62,234.1,M,-26.6,M,,*50
$GPGSA,A,3,12,05,06,25,,,,,,,,,1.88,1.62,0.95*0D
$GPRMC,221346.000,A,3700.0517,N,12203.7987,W,1.05,55.74,290715,,,A*47
$GPVTG,55.74,T,,M,1.05,N,1.94,K,A*06
$GPGGA,221347.000,3700.0515,N,12203.7987,W,1,04,1.62,234.4,M,-26.6,M,,*56
$GPGSA,A,3,12,05,06,25,,,,,,,,,1.88,1.62,0.95*0D
$GPRMC,221347.000,A,3700.0515,N,12203.7987,W,0.91,47.04,290715,,,A*4C
$GPVTG,47.04,T,,M,0.91,N,1.68,K,A*0D
$GPGGA,221348.000,3700.0513,N,12203.7985,W,1,04,1.62,234.7,M,-26.6,M,,*5E
$GPGSA,A,3,12,05,06,25,,,,,,,,,1.88,1.62,0.95*0D
$GPRMC,221348.000,A,3700.0513,N,12203.7985,W,0.83,49.72,290715,,,A*4B
$GPVTG,49.72,T,,M,0.83,N,1.55,K,A*0F
$GPGGA,221349.000,3700.0511,N,12203.7984,W,1,04,1.62,234.9,M,-26.6,M,,*52
$GPGSA,A,3,12,05,06,25,,,,,,,,,1.88,1.62,0.95*0D
$GPGSV,3,1,10,12,88,009,25,02,71,048,18,25,47,315,32,05,31,143,24*73
$GPGSV,3,2,10,06,30,046,17,29,26,283,21,24,24,209,16,20,04,186,*78
$GPGSV,3,3,10,31,03,329,,41,,,*44
$GPRMC,221349.000,A,3700.0511,N,12203.7984,W,0.72,47.47,290715,,,A*4F
$GPVTG,47.47,T,,M,0.72,N,1.33,K,A*09
$GPGGA,221350.000,3700.0510,N,12203.7980,W,1,04,1.62,235.2,M,-26.6,M,,*55
$GPGSA,A,3,12,05,06,25,,,,,,,,,1.88,1.62,0.95*0D
$GPRMC,221350.000,A,3700.0510,N,12203.7980,W,0.71,53.17,290715,,,A*41
$GPVTG,53.17,T,,M,0.71,N,1.31,K,A*08
$GPGGA,221351.000,3700.0511,N,12203.7976,W,1,04,1.62,235.4,M,-26.6,M,,*5A
$GPGSA,A,3,12,05,06,25,,,,,,,,,1.88,1.62,0.95*0D
$GPRMC,221351.000,A,3700.0511,N,12203.7976,W,0.71,52.99,290715,,,A*4F
$GPVTG,52.99,T,,M,0.71,N,1.31,K,A*0F
$GPGGA,221352.000,3700.0510,N,12203.7973,W,1,04,1.62,235.7,M,-26.6,M,,*5E
$GPGSA,A,3,12,05,06,25,,,,,,,,,1.88,1.62,0.95*0D
$GPRMC,221352.000,A,3700.0510,N,12203.7973,W,0.68,54.44,290715,,,A*46
$GPVTG,54.44,T,,M,0.68,N,1.26,K,A*07
$GPGGA,221353.000,3700.0506,N,12203.7974,W,1,04,1.62,235.9,M,-26.6,M,,*51
$GPGSA,A,3,12,05,06,25,,,,,,,,,1.88,1.62,0.95*0D
$GPRMC,221353.000,A,3700.0506,N,12203.7974,W,0.54,55.69,290715,,,A*46
$GPVTG,55.69,T,,M,0.54,N,1.01,K,A*03
$GPGGA,221354.000,3700.0500,N,12203.7977,W,1,04,1.62,236.1,M,-26.6,M,,*58
$GPGSA,A,3,12,05,06,25,,,,,,,,,1.88,1.62,0.95*0D
$GPGSV,3,1,10,12,88,009,25,02,70,048,16,25,47,315,32,05,31,143,21*79
$GPGSV,3,2,10,06,30,046,19,29,26,283,21,24,24,209,16,20,04,186,*76
$GPGSV,3,3,10,31,03,329,,43,,,*46
$GPRMC,221354.000,A,3700.0500,N,12203.7977,W,0.43,68.42,290715,,,A*45
$GPVTG,68.42,T,,M,0.43,N,0.79,K,A*0C
$GPGGA,221355.000,3700.0496,N,12203.7981,W,1,04,1.62,236.3,M,-26.6,M,,*5C
$GPGSA,A,3,12,05,06,25,,,,,,,,,1.88,1.62,0.95*0D
$GPRMC,221355.000,A,3700.0496,N,12203.7981,W,0.29,74.46,290715,,,A*46
$GPVTG,74.46,T,,M,0.29,N,0.54,K,A*06
$GPGGA,221356.000,3700.0491,N,12203.7984,W,1,04,1.62,236.5,M,-26.6,M,,*5B
$GPGSA,A,3,12,05,06,25,,,,,,,,,1.88,1.62,0.95*0D
$GPRMC,221356.000,A,3700.0491,N,12203.7984,W,0.20,95.61,290715,,,A*44
$GPVTG,95.61,T,,M,0.20,N,0.37,K,A*00
$GPGGA,221357.000,3700.0491,N,12203.7983,W,1,04,1.62,236.5,M,-26.6,M,,*5D
$GPGSA,A,3,12,05,06,25,,,,,,,,,1.88,1.62,0.95*0D
$GPRMC,221357.000,A,3700.0491,N,12203.7983,W,0.20,108.89,290715,,,A*71
$GPVTG,108.89,T,,M,0.20,N,0.36,K,A*32
$GPGGA,221358.000,3700.0490,N,12203.7983,W,1,04,1.62,236.5,M,-26.6,M,,*53
$GPGSA,A,3,12,05,06,25,,,,,,,,,1.88,1.62,0.95*0D
$GPRMC,221358.000,A,3700.0490,N,12203.7983,W,0.27,143.62,290715,,,A*72
$GPVTG,143.62,T,,M,0.27,N,0.51,K,A*3E
$GPGGA,221359.000,3700.0490,N,12203.7982,W,1,04,1.62,236.5,M,-26.6,M,,*53
$GPGSA,A,3,12,05,06,25,,,,,,,,,1.88,1.62,0.95*0D
$GPGSV,3,1,10,12,88,009,24,02,70,048,13,25,47,315,32,05,31,142,21*7C
$GPGSV,3,2,10,06,30,046,21,29,26,283,20,24,24,209,18,20,04,186,*72
$GPGSV,3,3,10,31,03,329,,45,,,*40
$GPRMC,221359.000,A,3700.0490,N,12203.7982,W,0.26,181.21,290715,,,A*7A
$GPVTG,181.21,T,,M,0.26,N,0.48,K,A*3E
$GPGGA,221400.000,3700.0489,N,12203.7982,W,1,04,1.62,236.5,M,-26.6,M,,*50
$GPGSA,A,3,12,05,06,25,,,,,,,,,1.88,1.62,0.95*0D
$GPRMC,221400.000,A,3700.0489,N,12203.7982,W,0.36,177.20,290715,,,A*70
$GPVTG,177.20,T,,M,0.36,N,0.67,K,A*3A
$GPGGA,221401.000,3700.0488,N,12203.7982,W,1,04,1.62,236.5,M,-26.6,M,,*50
$GPGSA,A,3,12,05,06,25,,,,,,,,,1.88,1.62,0.95*0D
$GPRMC,221401.000,A,3700.0488,N,12203.7982,W,0.37,186.30,290715,,,A*7E
$GPVTG,186.30,T,,M,0.37,N,0.68,K,A*3B
$GPGGA,221402.000,3700.0487,N,12203.7983,W,1,04,1.62,236.5,M,-26.6,M,,*5D
$GPGSA,A,3,12,05,06,25,,,,,,,,,1.88,1.62,0.95*0D
$GPRMC,221402.000,A,3700.0487,N,12203.7983,W,0.38,185.32,290715,,,A*7D
$GPVTG,185.32,T,,M,0.38,N,0.71,K,A*3D
$GPGGA,221403.000,3700.0486,N,12203.7983,W,1,04,1.62,236.5,M,-26.6,M,,*5D
$GPGSA,A,3,12,05,06,25,,,,,,,,,1.88,1.62,0.95*0D
$GPRMC,221403.000,A,3700.0486,N,12203.7983,W,0.40,193.84,290715,,,A*78
$GPVTG,193.84,T,,M,0.40,N,0.75,K,A*3C
$GPGGA,221404.000,3700.0484,N,12203.7983,W,1,04,1.62,236.6,M,-26.6,M,,*5B
$GPGSA,A,3,12,05,06,25,,,,,,,,,1.88,1.62,0.95*0D
$GPGSV,3,1,10,12,88,013,24,02,70,048,13,25,47,315,32,05,31,142,19*7C
$GPGSV,3,2,10,06,30,046,21,29,26,283,20,24,24,209,18,20,04,186,*72
$GPGSV,3,3,10,31,03,329,,45,,,*40
$GPRMC,221404.000,A,3700.0484,N,12203.7983,W,0.47,194.26,290715,,,A*75
$GPVTG,194.26,T,,M,0.47,N,0.87,K,A*39
$GPGGA,221405.000,3700.0483,N,12203.7984,W,1,04,1.62,236.6,M,-26.6,M,,*5A
$GPGSA,A,3,12,05,06,25,,,,,,,,,1.88,1.62,0.95*0D
$GPRMC,221405.000,A,3700.0483,N,12203.7984,W,0.56,193.84,290715,,,A*7B
$GPVTG,193.84,T,,M,0.56,N,1.04,K,A*3C
$GPGGA,221406.000,3700.0481,N,12203.7984,W,1,04,1.62,236.6,M,-26.6,M,,*5B
$GPGSA,A,3,12,05,06,25,,,,,,,,,1.88,1.62,0.95*0D
$GPRMC,221406.000,A,3700.0481,N,12203.7984,W,0.63,197.79,290715,,,A*7A
$GPVTG,197.79,T,,M,0.63,N,1.17,K,A*3E
$GPGGA,221407.000,3700.0476,N,12203.7989,W,1,04,1.62,236.7,M,-26.6,M,,*5E
$GPGSA,A,3,12,05,06,25,,,,,,,,,1.88,1.62,0.95*0D
$GPRMC,221407.000,A,3700.0476,N,12203.7989,W,0.69,203.41,290715,,,A*71
$GPVTG,203.41,T,,M,0.69,N,1.29,K,A*3C
$GPGGA,221408.000,3700.0471,N,12203.7992,W,1,04,1.62,236.9,M,-26.6,M,,*52
$GPGSA,A,3,12,05,06,25,,,,,,,,,1.88,1.62,0.95*0D
$GPRMC,221408.000,A,3700.0471,N,12203.7992,W,0.69,206.06,290715,,,A*75
$GPVTG,206.06,T,,M,0.69,N,1.28,K,A*3B
$GPGGA,221409.000,3700.0467,N,12203.7995,W,1,04,1.62,237.1,M,-26.6,M,,*5A
$GPGSA,A,3,12,05,06,25,,,,,,,,,1.88,1.62,0.95*0D
$GPGSV,3,1,10,12,88,013,24,02,70,048,14,25,47,315,33,05,31,142,19*7A
$GPGSV,3,2,10,06,30,046,21,29,26,283,21,24,24,209,18,20,04,186,*73
$GPGSV,3,3,10,31,03,329,,46,,,*43
$GPRMC,221409.000,A,3700.0467,N,12203.7995,W,0.69,204.07,290715,,,A*77
$GPVTG,204.07,T,,M,0.69,N,1.28,K,A*38
$GPGGA,221410.000,3700.0463,N,12203.7998,W,1,04,1.62,237.2,M,-26.6,M,,*58
$GPGSA,A,3,12,05,06,25,,,,,,,,,1.88,1.62,0.95*0D
$GPRMC,221410.000,A,3700.0463,N,12203.7998,W,0.68,206.02,290715,,,A*70
$GPVTG,206.02,T,,M,0.68,N,1.27,K,A*31
$GPGGA,221411.000,3700.0463,N,12203.7999,W,1,04,1.62,237.4,M,-26.6,M,,*5E
$GPGSA,A,3,12,05,06,25,,,,,,,,,1.88,1.62,0.95*0D
$GPRMC,221411.000,A,3700.0463,N,12203.7999,W,0.61,206.21,290715,,,A*78
$GPVTG,206.21,T,,M,0.61,N,1.14,K,A*39
$GPGGA,221412.000,3700.0462,N,12203.8000,W,1,04,1.62,237.6,M,-26.6,M,,*58
$GPGSA,A,3,12,05,06,25,,,,,,,,,1.88,1.62,0.95*0D
$GPRMC,221412.000,A,3700.0462,N,12203.8000,W,0.56,205.32,290715,,,A*79
$GPVTG,205.32,T,,M,0.56,N,1.04,K,A*3D
$GPGGA,221413.000,3700.0461,N,12203.8002,W,1,04,1.62,237.7,M,-26.6,M,,*59
$GPGSA,A,3,12,05,06,25,,,,,,,,,1.88,1.62,0.95*0D
$GPRMC,221413.000,A,3700.0461,N,12203.8002,W,0.51,203.31,290715,,,A*7B
$GPVTG,203.31,T,,M,0.51,N,0.94,K,A*37
$GPGGA,221414.000,3700.0461,N,12203.8003,W,1,04,1.62,237.9,M,-26.6,M,,*51
$GPGSA,A,3,12,05,06,25,,,,,,,,,1.88,1.62,0.95*0D
$GPGSV,3,1,10,12,88,013,24,02,70,048,15,25,47,315,33,05,31,142,20*71
$GPGSV,3,2,10,06,30,046,21,29,26,283,22,24,24,209,17,20,04,186,*7F
$GPGSV,3,3,10,31,03,329,,47,,,*42
$GPRMC,221414.000,A,3700.0461,N,12203.8003,W,0.45,207.47,290715,,,A*7D
$GPVTG,207.47,T,,M,0.45,N,0.83,K,A*31
$GPGGA,221415.000,3700.0459,N,12203.8005,W,1,04,1.62,238.1,M,-26.6,M,,*5A
$GPGSA,A,3,12,05,06,25,,,,,,,,,1.88,1.62,0.95*0D
$GPRMC,221415.000,A,3700.0459,N,12203.8005,W,0.46,213.17,290715,,,A*72
$GPVTG,213.17,T,,M,0.46,N,0.85,K,A*34
$GPGGA,221416.000,3700.0458,N,12203.8006,W,1,04,1.62,238.1,M,-26.6,M,,*5B
$GPGSA,A,3,12,05,06,25,,,,,,,,,1.88,1.62,0.95*0D
$GPRMC,221416.000,A,3700.0458,N,12203.8006,W,0.50,205.61,290715,,,A*72
$GPVTG,205.61,T,,M,0.50,N,0.92,K,A*33
$GPGGA,221417.000,3700.0457,N,12203.8007,W,1,04,1.62,238.1,M,-26.6,M,,*54
$GPGSA,A,3,12,05,06,25,,,,,,,,,1.88,1.62,0.95*0D
$GPRMC,221417.000,A,3700.0457,N,12203.8007,W,0.52,195.80,290715,,,A*7A
$GPVTG,195.80,T,,M,0.52,N,0.96,K,A*30
$GPGGA,221418.000,3700.0455,N,12203.8007,W,1,04,1.62,238.1,M,-26.6,M,,*59
$GPGSA,A,3,12,05,06,25,,,,,,,,,1.88,1.62,0.95*0D
$GPRMC,221418.000,A,3700.0455,N,12203.8007,W,0.51,192.36,290715,,,A*7E
$GPVTG,192.36,T,,M,0.51,N,0.95,K,A*3A
$GPGGA,221419.000,3700.0454,N,12203.8008,W,1,04,1.62,238.1,M,-26.6,M,,*56
$GPGSA,A,3,12,05,06,25,,,,,,,,,1.88,1.62,0.95*0D
$GPGSV,3,1,10,12,88,013,20,02,70,048,14,25,47,315,33,05,31,142,20*74
$GPGSV,3,2,10,06,30,046,18,29,26,284,23,24,24,209,17,20,04,186,*73
$GPGSV,3,3,10,31,03,329,,49,,,*4C
$GPRMC,221419.000,A,3700.0454,N,12203.8008,W,0.41,194.34,290715,,,A*74
$GPVTG,194.34,T,,M,0.41,N,0.76,K,A*32
$GPGGA,221420.000,3700.0453,N,12203.8008,W,1,04,1.62,238.1,M,-26.6,M,,*5B
$GPGSA,A,3,12,05,06,25,,,,,,,,,1.88,1.62,0.95*0D
$GPRMC,221420.000,A,3700.0453,N,12203.8008,W,0.35,197.98,290715,,,A*7F
$GPVTG,197.98,T,,M,0.35,N,0.65,K,A*36
$GPGGA,221421.000,3700.0452,N,12203.8008,W,1,04,1.62,238.1,M,-26.6,M,,*5B
$GPGSA,A,3,12,05,06,25,,,,,,,,,1.88,1.62,0.95*0D
$GPRMC,221421.000,A,3700.0452,N,12203.8008,W,0.27,200.15,290715,,,A*74
$GPVTG,200.15,T,,M,0.27,N,0.49,K,A*33
$GPGGA,221422.000,3700.0451,N,12203.8009,W,1,04,1.62,238.1,M,-26.6,M,,*5A
$GPGSA,A,3,12,05,06,25,,,,,,,,,1.88,1.62,0.95*0D
$GPRMC,221422.000,A,3700.0451,N,12203.8009,W,0.22,206.11,290715,,,A*72
$GPVTG,206.11,T,,M,0.22,N,0.40,K,A*3D
$GPGGA,221423.000,3700.0451,N,12203.8009,W,1,04,1.62,238.1,M,-26.6,M,,*5B
$GPGSA,A,3,12,05,06,25,,,,,,,,,1.88,1.62,0.95*0D
$GPRMC,221423.000,A,3700.0451,N,12203.8009,W,0.21,195.60,290715,,,A*7F
$GPVTG,195.60,T,,M,0.21,N,0.39,K,A*3F
$GPGGA,221424.000,3700.0450,N,12203.8009,W,1,04,1.62,238.1,M,-26.6,M,,*5D
$GPGSA,A,3,12,05,06,25,,,,,,,,,1.88,1.62,0.95*0D
$GPGSV,3,1,10,12,88,013,22,02,70,048,15,25,47,315,33,48,45,197,*77
$GPGSV,3,2,10,05,31,142,20,06,30,046,18,29,26,284,22,24,24,209,17*79
$GPGSV,3,3,10,20,04,186,,31,03,328,*79
$GPRMC,221424.000,A,3700.0450,N,12203.8009,W,0.20,187.02,290715,,,A*7F
$GPVTG,187.02,T,,M,0.20,N,0.36,K,A*36
$GPGGA,221425.000,3700.0450,N,12203.8009,W,1,04,1.62,238.2,M,-26.6,M,,*5F
$GPGSA,A,3,12,05,06,25,,,,,,,,,1.88,1.62,0.95*0D
$GPRMC,221425.000,A,3700.0450,N,12203.8009,W,0.24,185.11,290715,,,A*7A
$GPVTG,185.11,T,,M,0.24,N,0.44,K,A*37
$GPGGA,221426.000,3700.0449,N,12203.8009,W,1,04,1.62,238.2,M,-26.6,M,,*54
$GPGSA,A,3,12,05,06,25,,,,,,,,,1.88,1.62,0.95*0D
$GPRMC,221426.000,A,3700.0449,N,12203.8009,W,0.29,198.59,290715,,,A*7C
$GPVTG,198.59,T,,M,0.29,N,0.54,K,A*3B
$GPGGA,221427.000,3700.0448,N,12203.8010,W,1,04,1.62,238.2,M,-26.6,M,,*5C
$GPGSA,A,3,12,05,06,25,,,,,,,,,1.88,1.62,0.95*0D
$GPRMC,221427.000,A,3700.0448,N,12203.8010,W,0.31,217.35,290715,,,A*73
$GPVTG,217.35,T,,M,0.31,N,0.58,K,A*30
$GPGGA,221428.000,3700.0448,N,12203.8010,W,1,04,1.62,238.2,M,-26.6,M,,*53
$GPGSA,A,3,12,05,06,25,,,,,,,,,1.88,1.62,0.95*0D
$GPRMC,221428.000,A,3700.0448,N,12203.8010,W,0.34,208.41,290715,,,A*74
$GPVTG,208.41,T,,M,0.34,N,0.63,K,A*30
$GPGGA,221429.000,3700.0447,N,12203.8011,W,1,04,1.62,238.2,M,-26.6,M,,*5C
$GPGSA,A,3,12,05,06,25,,,,,,,,,1.88,1.62,0.95*0D
$GPGSV,3,1,10,12,88,013,23,02,70,048,14,25,47,315,33,48,45,197,*77
$GPGSV,3,2,10,05,31,142,22,06,30,046,18,29,26,284,21,24,24,209,16*79
$GPGSV,3,3,10,20,04,186,,31,03,328,*79
$GPRMC,221429.000,A,3700.0447,N,12203.8011,W,0.38,224.85,290715,,,A*71
$GPVTG,224.85,T,,M,0.38,N,0.71,K,A*39
$GPGGA,221430.000,3700.0446,N,12203.8012,W,1,04,1.62,238.2,M,-26.6,M,,*56
$GPGSA,A,3,12,05,06,25,,,,,,,,,1.88,1.62,0.95*0D
$GPRMC,221430.000,A,3700.0446,N,12203.8012,W,0.41,223.41,290715,,,A*7A
$GPVTG,223.41,T,,M,0.41,N,0.76,K,A*3F
$GPGGA,221431.000,3700.0445,N,12203.8013,W,1,04,1.62,238.2,M,-26.6,M,,*55
$GPGSA,A,3,12,05,06,25,,,,,,,,,1.88,1.62,0.95*0D
$GPRMC,221431.000,A,3700.0445,N,12203.8013,W,0.43,221.52,290715,,,A*7B
$GPVTG,221.52,T,,M,0.43,N,0.80,K,A*34
$GPGGA,221432.000,3700.0445,N,12203.8014,W,1,04,1.62,238.2,M,-26.6,M,,*51
$GPGSA,A,3,12,05,06,25,,,,,,,,,1.88,1.62,0.95*0D
$GPRMC,221432.000,A,3700.0445,N,12203.8014,W,0.29,202.03,290715,,,A*76
$GPVTG,202.03,T,,M,0.29,N,0.54,K,A*34
$GPGGA,221433.000,3700.0444,N,12203.8014,W,1,04,1.62,238.2,M,-26.6,M,,*51
$GPGSA,A,3,12,05,06,25,,,,,,,,,1.88,1.62,0.95*0D
$GPRMC,221433.000,A,3700.0444,N,12203.8014,W,0.23,166.07,290715,,,A*79
$GPVTG,166.07,T,,M,0.23,N,0.43,K,A*3D
$GPGGA,221434.000,3700.0443,N,12203.8014,W,1,04,1.62,238.2,M,-26.6,M,,*51
$GPGSA,A,3,12,05,06,25,,,,,,,,,1.88,1.62,0.96*0E
$GPGSV,3,1,10,12,88,013,21,02,70,048,13,25,47,315,33,51,44,156,*76
$GPGSV,3,2,10,05,31,142,22,06,29,046,18,29,26,284,22,24,24,209,16*72
$GPGSV,3,3,10,20,04,186,,31,03,328,*79
$GPRMC,221434.000,A,3700.0443,N,12203.8014,W,0.13,137.94,290715,,,A*74
